[{"id":"504757","lat":40.40988,"lng":-3.71393,"direccion":"AVENIDA DE LA GRAN VIA DE SAN FRANCISCO N.19","distrito":"CENTRO","barrio":"PALACIO","modelo":"50_LTS_EX"},{"id":"516240","lat":40.40827,"lng":-3.71267,"direccion":"AVENIDA DE LA GRAN VIA DE SAN FRANCISCO N.6","distrito":"CENTRO","barrio":"PALACIO","modelo":"50_LTS_EX"},{"id":"514556","lat":40.4189,"lng":-3.71296,"direccion":"CALLE DE BAILEN N.4","distrito":"CENTRO","barrio":"PALACIO","modelo":"50_LTS_EX"},{"id":"514554","lat":40.41787,"lng":-3.71304,"direccion":"CALLE DE BAILEN N.17","distrito":"CENTRO","barrio":"PALACIO","modelo":"50_LTS_EX"},{"id":"521696","lat":40.41547,"lng":-3.71334,"direccion":"CALLE DE BAILEN N.19","distrito":"CENTRO","barrio":"PALACIO","modelo":"50_LTS_EX"},{"id":"518483","lat":40.41342,"lng":-3.7138,"direccion":"CALLE DE BAILEN N.27","distrito":"CENTRO","barrio":"PALACIO","modelo":"50_LTS_EX"},{"id":"519079","lat":40.41241,"lng":-3.71607,"direccion":"CALLE DE BEATRIZ GALINDO N.6","distrito":"CENTRO","barrio":"PALACIO","modelo":"50_LTS_EX"},{"id":"501701","lat":40.42062,"lng":-3.709,"direccion":"CALLE DE ISABEL LA CATOLICA N.1","distrito":"CENTRO","barrio":"PALACIO","modelo":"50_LTS_EX"},{"id":"501710","lat":40.4206,"lng":-3.71199,"direccion":"CALLE DE LA ENCARNACION N.5","distrito":"CENTRO","barrio":"PALACIO","modelo":"50_LTS_EX"},{"id":"515078","lat":40.41779,"lng":-3.70996,"direccion":"CALLE DE LA INDEPENDENCIA N.4","distrito":"CENTRO","barrio":"PALACIO","modelo":"50_LTS_EX"},{"id":"516243","lat":40.40797,"lng":-3.71371,"direccion":"CALLE DE LA VENTOSA N.19","distrito":"CENTRO","barrio":"PALACIO","modelo":"50_LTS_EX"},{"id":"504257","lat":40.41048,"lng":-3.71154,"direccion":"CALLE DE LAS TABERNILLAS N.19","distrito":"CENTRO","barrio":"PALACIO","modelo":"50_LTS_EX"},{"id":"514523","lat":40.42259,"lng":-3.71061,"direccion":"CALLE DEL DOCTOR CARRACIDO N.1","distrito":"CENTRO","barrio":"PALACIO","modelo":"50_LTS_EX"},{"id":"514557","lat":40.41886,"lng":-3.7117,"direccion":"PLAZA DE ORIENTE N.8","distrito":"CENTRO","barrio":"PALACIO","modelo":"50_LTS_EX"},{"id":"514382","lat":40.41734,"lng":-3.71306,"direccion":"CALLE DE REQUENA N.7","distrito":"CENTRO","barrio":"PALACIO","modelo":"50_LTS_EX"},{"id":"516310","lat":40.42133,"lng":-3.70796,"direccion":"CALLE  GRAN VIA N.51","distrito":"CENTRO","barrio":"PALACIO","modelo":"50_LTS_EX"},{"id":"516281","lat":40.41945,"lng":-3.71206,"direccion":"CALLE DE SAN QUINTIN N.4","distrito":"CENTRO","barrio":"PALACIO","modelo":"50_LTS_EX"},{"id":"516294","lat":40.41659,"lng":-3.71072,"direccion":"CALLE DEL CONDE DE LEMOS N.8","distrito":"CENTRO","barrio":"PALACIO","modelo":"50_LTS_EX"},{"id":"504567","lat":40.41396,"lng":-3.71406,"direccion":"CALLE DE SEGOVIA N.23","distrito":"CENTRO","barrio":"PALACIO","modelo":"50_LTS_EX"},{"id":"516227","lat":40.41381,"lng":-3.71481,"direccion":"CALLE DE SEGOVIA N.27","distrito":"CENTRO","barrio":"PALACIO","modelo":"50_LTS_EX"},{"id":"516264","lat":40.41399,"lng":-3.71528,"direccion":"CALLE DE SEGOVIA N.28","distrito":"CENTRO","barrio":"PALACIO","modelo":"50_LTS_EX"},{"id":"514377","lat":40.41405,"lng":-3.71958,"direccion":"CALLE DE SEGOVIA N.67","distrito":"CENTRO","barrio":"PALACIO","modelo":"50_LTS_EX"},{"id":"503895","lat":40.41418,"lng":-3.7208,"direccion":"CALLE DE SEGOVIA N.75","distrito":"CENTRO","barrio":"PALACIO","modelo":"50_LTS_EX"},{"id":"512426","lat":40.41063,"lng":-3.70907,"direccion":"CALLE DE TOLEDO N.75","distrito":"CENTRO","barrio":"PALACIO","modelo":"50_LTS_EX"},{"id":"516218","lat":40.40865,"lng":-3.7106,"direccion":"CALLE DE TOLEDO N.86","distrito":"CENTRO","barrio":"PALACIO","modelo":"50_LTS_EX"},{"id":"501707","lat":40.42082,"lng":-3.71019,"direccion":"CALLE DE TORIJA N.10","distrito":"CENTRO","barrio":"PALACIO","modelo":"50_LTS_EX"},{"id":"512727","lat":40.41789,"lng":-3.71047,"direccion":"CALLE DE VERGARA N.3","distrito":"CENTRO","barrio":"PALACIO","modelo":"50_LTS_EX"},{"id":"518842","lat":40.41036,"lng":-3.7104,"direccion":"CALLE DEL HUMILLADERO N.16","distrito":"CENTRO","barrio":"PALACIO","modelo":"50_LTS_EX"},{"id":"504024","lat":40.40942,"lng":-3.71476,"direccion":"CALLE DEL ROSARIO N.6","distrito":"CENTRO","barrio":"PALACIO","modelo":"50_LTS_EX"},{"id":"516237","lat":40.40898,"lng":-3.71593,"direccion":"CALLE DEL ROSARIO N.31","distrito":"CENTRO","barrio":"PALACIO","modelo":"50_LTS_EX"},{"id":"524109","lat":40.42279,"lng":-3.71037,"direccion":"CALLE DEL DOCTOR CARRACIDO N.1","distrito":"CENTRO","barrio":"PALACIO","modelo":"50_LTS_EX"},{"id":"516291","lat":40.41512,"lng":-3.7137,"direccion":"CALLE  MAYOR N.81","distrito":"CENTRO","barrio":"PALACIO","modelo":"50_LTS_EX"},{"id":"512431","lat":40.41102,"lng":-3.71229,"direccion":"CALLE DE LAS AGUAS N.10","distrito":"CENTRO","barrio":"PALACIO","modelo":"50_LTS_EX"},{"id":"512537","lat":40.41909,"lng":-3.7082,"direccion":"COSTANILLA DE LOS ANGELES N.11","distrito":"CENTRO","barrio":"PALACIO","modelo":"50_LTS_EX"},{"id":"516254","lat":40.41369,"lng":-3.71165,"direccion":"COSTANILLA DE SAN ANDRES N.1","distrito":"CENTRO","barrio":"PALACIO","modelo":"50_LTS_EX"},{"id":"504279","lat":40.41341,"lng":-3.7103,"direccion":"CALLE DE SEGOVIA N.11","distrito":"CENTRO","barrio":"PALACIO","modelo":"50_LTS_EX"},{"id":"504634","lat":40.41337,"lng":-3.71474,"direccion":"CALLE DE BEATRIZ GALINDO N.1","distrito":"CENTRO","barrio":"PALACIO","modelo":"50_LTS_EX"},{"id":"516278","lat":40.42077,"lng":-3.71458,"direccion":"CUESTA DE SAN VICENTE N.14","distrito":"CENTRO","barrio":"PALACIO","modelo":"50_LTS_EX"},{"id":"516280","lat":40.42161,"lng":-3.71332,"direccion":"CUESTA DE SAN VICENTE N.2","distrito":"CENTRO","barrio":"PALACIO","modelo":"50_LTS_EX"},{"id":"516286","lat":40.41994,"lng":-3.70827,"direccion":"CUESTA DE SANTO DOMINGO N.24","distrito":"CENTRO","barrio":"PALACIO","modelo":"50_LTS_EX"},{"id":"501721","lat":40.41977,"lng":-3.70946,"direccion":"CUESTA DE SANTO DOMINGO N.7","distrito":"CENTRO","barrio":"PALACIO","modelo":"50_LTS_EX"},{"id":"516267","lat":40.41475,"lng":-3.71696,"direccion":"CUESTA DE LA VEGA N.3","distrito":"CENTRO","barrio":"PALACIO","modelo":"50_LTS_EX"},{"id":"502561","lat":40.41463,"lng":-3.71541,"direccion":"CUESTA DE LA VEGA N.1","distrito":"CENTRO","barrio":"PALACIO","modelo":"50_LTS_EX"},{"id":"503491","lat":40.41505,"lng":-3.71865,"direccion":"CALLE DE SEGOVIA N.30","distrito":"CENTRO","barrio":"PALACIO","modelo":"50_LTS_EX"},{"id":"518975","lat":40.41735,"lng":-3.72064,"direccion":"PASEO DE LA VIRGEN DEL PUERTO N.3","distrito":"CENTRO","barrio":"PALACIO","modelo":"50_LTS_EX"},{"id":"503504","lat":40.41615,"lng":-3.72047,"direccion":"PASEO  BAJO DE LA VIRGEN DEL PUERTO N.2","distrito":"CENTRO","barrio":"PALACIO","modelo":"50_LTS_EX"},{"id":"518977","lat":40.41606,"lng":-3.72093,"direccion":"PASEO DE LA VIRGEN DEL PUERTO N.4","distrito":"CENTRO","barrio":"PALACIO","modelo":"50_LTS_EX"},{"id":"503498","lat":40.41485,"lng":-3.7205,"direccion":"PASEO DE LA VIRGEN DEL PUERTO N.3","distrito":"CENTRO","barrio":"PALACIO","modelo":"50_LTS_EX"},{"id":"518976","lat":40.41558,"lng":-3.72087,"direccion":"PASEO DE LA VIRGEN DEL PUERTO N.4","distrito":"CENTRO","barrio":"PALACIO","modelo":"50_LTS_EX"},{"id":"512866","lat":40.41412,"lng":-3.72154,"direccion":"CALLE DE SEGOVIA N.81","distrito":"CENTRO","barrio":"PALACIO","modelo":"50_LTS_EX"},{"id":"502152","lat":40.42302,"lng":-3.71121,"direccion":"PLAZA DE ESPAÑA N.2","distrito":"CENTRO","barrio":"PALACIO","modelo":"50_LTS_EX"},{"id":"502134","lat":40.42222,"lng":-3.71268,"direccion":"PLAZA DE ESPAÑA N.8","distrito":"CENTRO","barrio":"PALACIO","modelo":"50_LTS_EX"},{"id":"514378","lat":40.41232,"lng":-3.71475,"direccion":"PLAZA DE GABRIEL MIRO N.2","distrito":"CENTRO","barrio":"PALACIO","modelo":"50_LTS_EX"},{"id":"516232","lat":40.41208,"lng":-3.71523,"direccion":"PLAZA DE GABRIEL MIRO N.7","distrito":"CENTRO","barrio":"PALACIO","modelo":"50_LTS_EX"},{"id":"516306","lat":40.41792,"lng":-3.70919,"direccion":"PLAZA DE ISABEL II N.1","distrito":"CENTRO","barrio":"PALACIO","modelo":"50_LTS_EX"},{"id":"514375","lat":40.41121,"lng":-3.70867,"direccion":"PLAZA DE LA CEBADA N.1","distrito":"CENTRO","barrio":"PALACIO","modelo":"50_LTS_EX"},{"id":"514383","lat":40.41968,"lng":-3.71116,"direccion":"PLAZA DE LA ENCARNACION N.2","distrito":"CENTRO","barrio":"PALACIO","modelo":"50_LTS_EX"},{"id":"518811","lat":40.41298,"lng":-3.71156,"direccion":"PLAZA DE LA PAJA N.2","distrito":"CENTRO","barrio":"PALACIO","modelo":"50_LTS_EX"},{"id":"514519","lat":40.40824,"lng":-3.71212,"direccion":"PLAZA DE LA VIRGEN DE LA PALOMA N.4","distrito":"CENTRO","barrio":"PALACIO","modelo":"50_LTS_EX"},{"id":"514521","lat":40.41176,"lng":-3.71142,"direccion":"PLAZA DE LOS CARROS N.3","distrito":"CENTRO","barrio":"PALACIO","modelo":"50_LTS_EX"},{"id":"525483","lat":40.416443,"lng":-3.708675,"direccion":"PLAZA DE LOS HERRADORES N.4","distrito":"CENTRO","barrio":"PALACIO","modelo":"50_LTS_EX"},{"id":"514553","lat":40.41783,"lng":-3.71182,"direccion":"PLAZA DE ORIENTE N.1","distrito":"CENTRO","barrio":"PALACIO","modelo":"50_LTS_EX"},{"id":"525536","lat":40.41701,"lng":-3.71174,"direccion":"PLAZA DE RAMALES N.4","distrito":"CENTRO","barrio":"PALACIO","modelo":"50_LTS_EX"},{"id":"516235","lat":40.41089,"lng":-3.71412,"direccion":"PLAZA DE SAN FRANCISCO N.5","distrito":"CENTRO","barrio":"PALACIO","modelo":"50_LTS_EX"},{"id":"514380","lat":40.41552,"lng":-3.70926,"direccion":"PLAZA DE SAN MIGUEL N.2","distrito":"CENTRO","barrio":"PALACIO","modelo":"50_LTS_EX"},{"id":"514379","lat":40.41452,"lng":-3.70876,"direccion":"PLAZA DEL CONDE DE BARAJAS N.5","distrito":"CENTRO","barrio":"PALACIO","modelo":"50_LTS_EX"},{"id":"512429","lat":40.41161,"lng":-3.71054,"direccion":"CALLE DE LA CAVA BAJA N.42","distrito":"CENTRO","barrio":"PALACIO","modelo":"50_LTS_EX"},{"id":"516225","lat":40.41167,"lng":-3.71784,"direccion":"RONDA DE SEGOVIA N.17","distrito":"CENTRO","barrio":"PALACIO","modelo":"50_LTS_EX"},{"id":"516224","lat":40.40815,"lng":-3.71516,"direccion":"CUESTA DE LAS DESCARGAS N.5","distrito":"CENTRO","barrio":"PALACIO","modelo":"50_LTS_EX"},{"id":"504001","lat":40.40752,"lng":-3.71344,"direccion":"RONDA DE SEGOVIA N.73","distrito":"CENTRO","barrio":"PALACIO","modelo":"50_LTS_EX"},{"id":"512424","lat":40.40994,"lng":-3.70355,"direccion":"CALLE DE AMPARO N.24","distrito":"CENTRO","barrio":"EMBAJADORES","modelo":"50_LTS_EX"},{"id":"514509","lat":40.40708,"lng":-3.6956,"direccion":"CALLE DE ARGUMOSA N.32","distrito":"CENTRO","barrio":"EMBAJADORES","modelo":"50_LTS_EX"},{"id":"515974","lat":40.40787,"lng":-3.6968,"direccion":"CALLE DE ARGUMOSA N.35","distrito":"CENTRO","barrio":"EMBAJADORES","modelo":"50_LTS_EX"},{"id":"505449","lat":40.40783,"lng":-3.69641,"direccion":"CALLE DE ARGUMOSA N.37","distrito":"CENTRO","barrio":"EMBAJADORES","modelo":"50_LTS_EX"},{"id":"518517","lat":40.40929,"lng":-3.6929,"direccion":"CALLE DE ATOCHA N.118","distrito":"CENTRO","barrio":"EMBAJADORES","modelo":"50_LTS_EX"},{"id":"506157","lat":40.41145,"lng":-3.69753,"direccion":"CALLE DE ATOCHA N.74","distrito":"CENTRO","barrio":"EMBAJADORES","modelo":"50_LTS_EX"},{"id":"515960","lat":40.41075,"lng":-3.69612,"direccion":"CALLE DE ATOCHA N.94","distrito":"CENTRO","barrio":"EMBAJADORES","modelo":"50_LTS_EX"},{"id":"516006","lat":40.41007,"lng":-3.70645,"direccion":"CALLE DE EMBAJADORES N.12","distrito":"CENTRO","barrio":"EMBAJADORES","modelo":"50_LTS_EX"},{"id":"524557","lat":40.40927,"lng":-3.70563,"direccion":"CALLE DE EMBAJADORES N.17","distrito":"CENTRO","barrio":"EMBAJADORES","modelo":"50_LTS_EX"},{"id":"518481","lat":40.40882,"lng":-3.70515,"direccion":"CALLE DE EMBAJADORES N.27","distrito":"CENTRO","barrio":"EMBAJADORES","modelo":"50_LTS_EX"},{"id":"516002","lat":40.40782,"lng":-3.70413,"direccion":"CALLE DE EMBAJADORES N.39","distrito":"CENTRO","barrio":"EMBAJADORES","modelo":"50_LTS_EX"},{"id":"512726","lat":40.40693,"lng":-3.70376,"direccion":"CALLE DE EMBAJADORES N.47","distrito":"CENTRO","barrio":"EMBAJADORES","modelo":"50_LTS_EX"},{"id":"515951","lat":40.41136,"lng":-3.70514,"direccion":"CALLE DE JUANELO N.6","distrito":"CENTRO","barrio":"EMBAJADORES","modelo":"50_LTS_EX"},{"id":"514518","lat":40.40886,"lng":-3.71026,"direccion":"CALLE DE LA ARGANZUELA N.1","distrito":"CENTRO","barrio":"EMBAJADORES","modelo":"50_LTS_EX"},{"id":"504126","lat":40.40664,"lng":-3.70905,"direccion":"CALLE DE LA ARGANZUELA N.35","distrito":"CENTRO","barrio":"EMBAJADORES","modelo":"50_LTS_EX"},{"id":"505044","lat":40.41325,"lng":-3.70727,"direccion":"CALLE DE LA COLEGIATA N.19","distrito":"CENTRO","barrio":"EMBAJADORES","modelo":"50_LTS_EX"},{"id":"515932","lat":40.41419,"lng":-3.70403,"direccion":"CALLE DE LA CONCEPCION JERONIMA N.1","distrito":"CENTRO","barrio":"EMBAJADORES","modelo":"50_LTS_EX"},{"id":"515946","lat":40.4124,"lng":-3.70313,"direccion":"CALLE DE LA MAGDALENA N.2","distrito":"CENTRO","barrio":"EMBAJADORES","modelo":"50_LTS_EX"},{"id":"516010","lat":40.40979,"lng":-3.70723,"direccion":"CALLE DE LA RIBERA DE CURTIDORES N.1","distrito":"CENTRO","barrio":"EMBAJADORES","modelo":"50_LTS_EX"},{"id":"516011","lat":40.40791,"lng":-3.70729,"direccion":"CALLE DE LA RIBERA DE CURTIDORES N.14","distrito":"CENTRO","barrio":"EMBAJADORES","modelo":"50_LTS_EX"},{"id":"504950","lat":40.40898,"lng":-3.70739,"direccion":"CALLE DE LA RIBERA DE CURTIDORES N.6","distrito":"CENTRO","barrio":"EMBAJADORES","modelo":"50_LTS_EX"},{"id":"505521","lat":40.40796,"lng":-3.69828,"direccion":"CALLE DE ARGUMOSA N.18","distrito":"CENTRO","barrio":"EMBAJADORES","modelo":"50_LTS_EX"},{"id":"527527","lat":40.41333,"lng":-3.7015,"direccion":"CALLE DE ATOCHA N.30","distrito":"CENTRO","barrio":"EMBAJADORES","modelo":"50_LTS_EX"},{"id":"512865","lat":40.41062,"lng":-3.70256,"direccion":"CALLE DE LAVAPIES N.19","distrito":"CENTRO","barrio":"EMBAJADORES","modelo":"50_LTS_EX"},{"id":"512418","lat":40.41244,"lng":-3.7025,"direccion":"CALLE DE LUIS VELEZ DE GUEVARA N.20","distrito":"CENTRO","barrio":"EMBAJADORES","modelo":"50_LTS_EX"},{"id":"505315","lat":40.4076,"lng":-3.70051,"direccion":"CALLE DE MIGUEL SERVET N.1","distrito":"CENTRO","barrio":"EMBAJADORES","modelo":"50_LTS_EX"},{"id":"514511","lat":40.40672,"lng":-3.70124,"direccion":"CALLE DE MIGUEL SERVET N.11","distrito":"CENTRO","barrio":"EMBAJADORES","modelo":"50_LTS_EX"},{"id":"504893","lat":40.40691,"lng":-3.70714,"direccion":"CALLE DE MIRA EL SOL N.21","distrito":"CENTRO","barrio":"EMBAJADORES","modelo":"50_LTS_EX"},{"id":"515948","lat":40.41031,"lng":-3.70246,"direccion":"CALLE DE LAVAPIES N.27","distrito":"CENTRO","barrio":"EMBAJADORES","modelo":"50_LTS_EX"},{"id":"515962","lat":40.40916,"lng":-3.69419,"direccion":"CALLE DEL DOCTOR MATA N.2","distrito":"CENTRO","barrio":"EMBAJADORES","modelo":"50_LTS_EX"},{"id":"506113","lat":40.41188,"lng":-3.69953,"direccion":"CALLE DE SANTA ISABEL N.10","distrito":"CENTRO","barrio":"EMBAJADORES","modelo":"50_LTS_EX"},{"id":"506138","lat":40.41027,"lng":-3.69765,"direccion":"CALLE DE SANTA ISABEL N.40","distrito":"CENTRO","barrio":"EMBAJADORES","modelo":"50_LTS_EX"},{"id":"515993","lat":40.40973,"lng":-3.69639,"direccion":"CALLE DEL MARQUES DE TOCA N.14","distrito":"CENTRO","barrio":"EMBAJADORES","modelo":"50_LTS_EX"},{"id":"524629","lat":40.40943,"lng":-3.69588,"direccion":"CALLE DE SANTA ISABEL N.48","distrito":"CENTRO","barrio":"EMBAJADORES","modelo":"50_LTS_EX"},{"id":"516217","lat":40.40926,"lng":-3.70994,"direccion":"CALLE DE TOLEDO N.101","distrito":"CENTRO","barrio":"EMBAJADORES","modelo":"50_LTS_EX"},{"id":"515937","lat":40.41246,"lng":-3.70762,"direccion":"CALLE DE TOLEDO N.41","distrito":"CENTRO","barrio":"EMBAJADORES","modelo":"50_LTS_EX"},{"id":"515959","lat":40.41064,"lng":-3.70072,"direccion":"CALLE DEL AVE MARIA N.23","distrito":"CENTRO","barrio":"EMBAJADORES","modelo":"50_LTS_EX"},{"id":"516212","lat":40.40744,"lng":-3.71008,"direccion":"CALLE DEL CAPITAN SALAZAR MARTINEZ N.2","distrito":"CENTRO","barrio":"EMBAJADORES","modelo":"50_LTS_EX"},{"id":"516016","lat":40.40663,"lng":-3.70539,"direccion":"CALLE DEL CASINO N.5","distrito":"CENTRO","barrio":"EMBAJADORES","modelo":"50_LTS_EX"},{"id":"514374","lat":40.41251,"lng":-3.70509,"direccion":"CALLE DE LA COLEGIATA N.1","distrito":"CENTRO","barrio":"EMBAJADORES","modelo":"50_LTS_EX"},{"id":"515987","lat":40.40745,"lng":-3.69779,"direccion":"CALLE DEL DOCTOR FOURQUET N.20","distrito":"CENTRO","barrio":"EMBAJADORES","modelo":"50_LTS_EX"},{"id":"505387","lat":40.40684,"lng":-3.69982,"direccion":"CALLE DEL DOCTOR FOURQUET N.41","distrito":"CENTRO","barrio":"EMBAJADORES","modelo":"50_LTS_EX"},{"id":"515935","lat":40.41204,"lng":-3.70556,"direccion":"CALLE DEL DUQUE DE ALBA N.2","distrito":"CENTRO","barrio":"EMBAJADORES","modelo":"50_LTS_EX"},{"id":"515941","lat":40.41317,"lng":-3.70635,"direccion":"CALLE DEL DUQUE DE RIVAS N.5","distrito":"CENTRO","barrio":"EMBAJADORES","modelo":"50_LTS_EX"},{"id":"515954","lat":40.40973,"lng":-3.70391,"direccion":"CALLE DEL MESON DE PAREDES N.35","distrito":"CENTRO","barrio":"EMBAJADORES","modelo":"50_LTS_EX"},{"id":"512415","lat":40.40828,"lng":-3.70313,"direccion":"CALLE DEL MESON DE PAREDES N.61","distrito":"CENTRO","barrio":"EMBAJADORES","modelo":"50_LTS_EX"},{"id":"524604","lat":40.41199,"lng":-3.70173,"direccion":"CALLE DE LA CABEZA N.25","distrito":"CENTRO","barrio":"EMBAJADORES","modelo":"50_LTS_EX"},{"id":"515990","lat":40.40842,"lng":-3.69967,"direccion":"CALLE DEL SALITRE N.48","distrito":"CENTRO","barrio":"EMBAJADORES","modelo":"50_LTS_EX"},{"id":"512422","lat":40.40559,"lng":-3.70295,"direccion":"GLORIETA DE EMBAJADORES N.10","distrito":"CENTRO","barrio":"EMBAJADORES","modelo":"50_LTS_EX"},{"id":"516030","lat":40.40695,"lng":-3.7111,"direccion":"GLORIETA DE LA PUERTA DE TOLEDO N.1","distrito":"CENTRO","barrio":"EMBAJADORES","modelo":"50_LTS_EX"},{"id":"512425","lat":40.4109,"lng":-3.70722,"direccion":"PLAZA DE CASCORRO N.3","distrito":"CENTRO","barrio":"EMBAJADORES","modelo":"50_LTS_EX"},{"id":"512417","lat":40.4124,"lng":-3.70412,"direccion":"PLAZA DE TIRSO DE MOLINA N.17","distrito":"CENTRO","barrio":"EMBAJADORES","modelo":"50_LTS_EX"},{"id":"516024","lat":40.40678,"lng":-3.70825,"direccion":"PLAZA DEL CAMPILLO DEL MUNDO NUEVO N.2","distrito":"CENTRO","barrio":"EMBAJADORES","modelo":"50_LTS_EX"},{"id":"516018","lat":40.40619,"lng":-3.70864,"direccion":"PLAZA DEL CAMPILLO DEL MUNDO NUEVO N.3","distrito":"CENTRO","barrio":"EMBAJADORES","modelo":"50_LTS_EX"},{"id":"515965","lat":40.40823,"lng":-3.69297,"direccion":"PLAZA DEL EMPERADOR CARLOS V N.8","distrito":"CENTRO","barrio":"EMBAJADORES","modelo":"50_LTS_EX"},{"id":"514373","lat":40.4094,"lng":-3.70844,"direccion":"PLAZA DEL GENERAL VARA DE REY N.11","distrito":"CENTRO","barrio":"EMBAJADORES","modelo":"50_LTS_EX"},{"id":"514371","lat":40.409,"lng":-3.70123,"direccion":"PLAZA DE LAVAPIES N.1","distrito":"CENTRO","barrio":"EMBAJADORES","modelo":"50_LTS_EX"},{"id":"515956","lat":40.40865,"lng":-3.70106,"direccion":"PLAZA DE LAVAPIES N.6","distrito":"CENTRO","barrio":"EMBAJADORES","modelo":"50_LTS_EX"},{"id":"514510","lat":40.40638,"lng":-3.69814,"direccion":"RONDA DE ATOCHA N.24","distrito":"CENTRO","barrio":"EMBAJADORES","modelo":"50_LTS_EX"},{"id":"515968","lat":40.40604,"lng":-3.69937,"direccion":"RONDA DE ATOCHA N.36","distrito":"CENTRO","barrio":"EMBAJADORES","modelo":"50_LTS_EX"},{"id":"514372","lat":40.40556,"lng":-3.70513,"direccion":"RONDA DE TOLEDO N.9","distrito":"CENTRO","barrio":"EMBAJADORES","modelo":"50_LTS_EX"},{"id":"504829","lat":40.40598,"lng":-3.70725,"direccion":"RONDA DE TOLEDO N.5","distrito":"CENTRO","barrio":"EMBAJADORES","modelo":"50_LTS_EX"},{"id":"514512","lat":40.40568,"lng":-3.70071,"direccion":"RONDA DE VALENCIA N.8","distrito":"CENTRO","barrio":"EMBAJADORES","modelo":"50_LTS_EX"},{"id":"516623","lat":40.41874,"lng":-3.69707,"direccion":"CALLE DE ALCALA N.39","distrito":"CENTRO","barrio":"CORTES","modelo":"50_LTS_EX"},{"id":"515924","lat":40.41054,"lng":-3.69521,"direccion":"CALLE DE ATOCHA N.107","distrito":"CENTRO","barrio":"CORTES","modelo":"50_LTS_EX"},{"id":"515928","lat":40.41221,"lng":-3.69875,"direccion":"CALLE DE ATOCHA N.58","distrito":"CENTRO","barrio":"CORTES","modelo":"50_LTS_EX"},{"id":"515926","lat":40.41122,"lng":-3.69673,"direccion":"CALLE DE ATOCHA N.89","distrito":"CENTRO","barrio":"CORTES","modelo":"50_LTS_EX"},{"id":"516635","lat":40.41766,"lng":-3.69843,"direccion":"CALLE DE CEDACEROS N.3","distrito":"CENTRO","barrio":"CORTES","modelo":"50_LTS_EX"},{"id":"506271","lat":40.41707,"lng":-3.69835,"direccion":"CALLE DE CEDACEROS N.9","distrito":"CENTRO","barrio":"CORTES","modelo":"50_LTS_EX"},{"id":"516888","lat":40.41494,"lng":-3.69485,"direccion":"PLAZA DE CANOVAS DEL CASTILLO N.4","distrito":"CENTRO","barrio":"CORTES","modelo":"50_LTS_EX"},{"id":"512864","lat":40.41066,"lng":-3.6938,"direccion":"CALLE DE LA ALAMEDA N.15","distrito":"CENTRO","barrio":"CORTES","modelo":"50_LTS_EX"},{"id":"526280","lat":40.41906,"lng":-3.69964,"direccion":"CALLE DE LA VIRGEN DE LOS PELIGROS N.14","distrito":"CENTRO","barrio":"CORTES","modelo":"50_LTS_EX"},{"id":"525928","lat":40.41347,"lng":-3.69825,"direccion":"CALLE DE LAS HUERTAS N.32","distrito":"CENTRO","barrio":"CORTES","modelo":"50_LTS_EX"},{"id":"515071","lat":40.41306,"lng":-3.69554,"direccion":"CALLE DE LAS HUERTAS N.70","distrito":"CENTRO","barrio":"CORTES","modelo":"50_LTS_EX"},{"id":"516636","lat":40.41768,"lng":-3.69599,"direccion":"CALLE DE LOS MADRAZO N.21","distrito":"CENTRO","barrio":"CORTES","modelo":"50_LTS_EX"},{"id":"515073","lat":40.41253,"lng":-3.69579,"direccion":"CALLE DE MORATIN N.30","distrito":"CENTRO","barrio":"CORTES","modelo":"50_LTS_EX"},{"id":"516867","lat":40.41373,"lng":-3.69702,"direccion":"CALLE DE LOPE DE VEGA N.23","distrito":"CENTRO","barrio":"CORTES","modelo":"50_LTS_EX"},{"id":"527690","lat":40.41539,"lng":-3.69692,"direccion":"PLAZA DE LAS CORTES N.9","distrito":"CENTRO","barrio":"CORTES","modelo":"50_LTS_EX"},{"id":"515074","lat":40.41186,"lng":-3.6948,"direccion":"CALLE DE SAN PEDRO N.14","distrito":"CENTRO","barrio":"CORTES","modelo":"50_LTS_EX"},{"id":"516626","lat":40.41899,"lng":-3.69766,"direccion":"CALLE DEL CABALLERO DE GRACIA N.38","distrito":"CENTRO","barrio":"CORTES","modelo":"50_LTS_EX"},{"id":"515921","lat":40.41141,"lng":-3.69343,"direccion":"CALLE DEL GOBERNADOR N.32","distrito":"CENTRO","barrio":"CORTES","modelo":"50_LTS_EX"},{"id":"514612","lat":40.4149,"lng":-3.69849,"direccion":"CALLE DEL PRADO N.18","distrito":"CENTRO","barrio":"CORTES","modelo":"50_LTS_EX"},{"id":"506266","lat":40.41859,"lng":-3.69584,"direccion":"CALLE DE ALCALA N.46","distrito":"CENTRO","barrio":"CORTES","modelo":"50_LTS_EX"},{"id":"519886","lat":40.4168,"lng":-3.69549,"direccion":"CALLE DEL MARQUES DE CUBAS N.19","distrito":"CENTRO","barrio":"CORTES","modelo":"50_LTS_EX"},{"id":"514611","lat":40.41456,"lng":-3.69982,"direccion":"CALLE DEL PRADO N.4","distrito":"CENTRO","barrio":"CORTES","modelo":"50_LTS_EX"},{"id":"514505","lat":40.41396,"lng":-3.70018,"direccion":"CALLE DE LAS HUERTAS N.16","distrito":"CENTRO","barrio":"CORTES","modelo":"50_LTS_EX"},{"id":"516886","lat":40.41468,"lng":-3.69404,"direccion":"PLAZA DE CANOVAS DEL CASTILLO N.3","distrito":"CENTRO","barrio":"CORTES","modelo":"50_LTS_EX"},{"id":"515923","lat":40.41227,"lng":-3.6931,"direccion":"PASEO DEL PRADO N.24","distrito":"CENTRO","barrio":"CORTES","modelo":"50_LTS_EX"},{"id":"516882","lat":40.41581,"lng":-3.69445,"direccion":"PASEO DEL PRADO N.8","distrito":"CENTRO","barrio":"CORTES","modelo":"50_LTS_EX"},{"id":"516880","lat":40.41845,"lng":-3.69347,"direccion":"PASEO DEL PRADO N.2","distrito":"CENTRO","barrio":"CORTES","modelo":"50_LTS_EX"},{"id":"516870","lat":40.41428,"lng":-3.69578,"direccion":"CALLE DE CERVANTES N.38","distrito":"CENTRO","barrio":"CORTES","modelo":"50_LTS_EX"},{"id":"518369","lat":40.41298,"lng":-3.69328,"direccion":"PLAZA DE LA PLATERIA DE MARTINEZ N.3","distrito":"CENTRO","barrio":"CORTES","modelo":"50_LTS_EX"},{"id":"522224","lat":40.4128,"lng":-3.69364,"direccion":"PLAZA DE LA PLATERIA DE MARTINEZ N.3","distrito":"CENTRO","barrio":"CORTES","modelo":"50_LTS_EX"},{"id":"518365","lat":40.41588,"lng":-3.69584,"direccion":"PLAZA DE LAS CORTES N.3","distrito":"CENTRO","barrio":"CORTES","modelo":"50_LTS_EX"},{"id":"514608","lat":40.41439,"lng":-3.70115,"direccion":"PLAZA DE SANTA ANA N.12","distrito":"CENTRO","barrio":"CORTES","modelo":"50_LTS_EX"},{"id":"514609","lat":40.4146,"lng":-3.70033,"direccion":"CALLE DEL PRINCIPE N.27","distrito":"CENTRO","barrio":"CORTES","modelo":"50_LTS_EX"},{"id":"525339","lat":40.42524,"lng":-3.6949,"direccion":"CALLE DE ARGENSOLA N.10","distrito":"CENTRO","barrio":"JUSTICIA","modelo":"50_LTS_EX"},{"id":"514620","lat":40.42686,"lng":-3.69982,"direccion":"CALLE DE BARCELO N.11","distrito":"CENTRO","barrio":"JUSTICIA","modelo":"50_LTS_EX"},{"id":"505020","lat":40.42636,"lng":-3.70017,"direccion":"CALLE DE BARCELO N.2","distrito":"CENTRO","barrio":"JUSTICIA","modelo":"50_LTS_EX"},{"id":"518482","lat":40.42604,"lng":-3.70014,"direccion":"CALLE DE BARCELO N.2","distrito":"CENTRO","barrio":"JUSTICIA","modelo":"50_LTS_EX"},{"id":"526100","lat":40.42661,"lng":-3.70045,"direccion":"CALLE DE BARCELO N.7","distrito":"CENTRO","barrio":"JUSTICIA","modelo":"50_LTS_EX"},{"id":"505982","lat":40.42454,"lng":-3.69559,"direccion":"CALLE DE BELEN N.15","distrito":"CENTRO","barrio":"JUSTICIA","modelo":"50_LTS_EX"},{"id":"505987","lat":40.42411,"lng":-3.69649,"direccion":"CALLE DE BELEN N.8","distrito":"CENTRO","barrio":"JUSTICIA","modelo":"50_LTS_EX"},{"id":"505948","lat":40.42548,"lng":-3.69638,"direccion":"CALLE DE CAMPOAMOR N.1","distrito":"CENTRO","barrio":"JUSTICIA","modelo":"50_LTS_EX"},{"id":"505694","lat":40.42868,"lng":-3.70134,"direccion":"CALLE DE CHURRUCA N.29","distrito":"CENTRO","barrio":"JUSTICIA","modelo":"50_LTS_EX"},{"id":"503431","lat":40.42725,"lng":-3.70078,"direccion":"CALLE DE CHURRUCA N.6","distrito":"CENTRO","barrio":"JUSTICIA","modelo":"50_LTS_EX"},{"id":"516546","lat":40.42862,"lng":-3.70216,"direccion":"CALLE DE FUENCARRAL N.110","distrito":"CENTRO","barrio":"JUSTICIA","modelo":"50_LTS_EX"},{"id":"524342","lat":40.42318,"lng":-3.70066,"direccion":"CALLE DE FUENCARRAL N.44","distrito":"CENTRO","barrio":"JUSTICIA","modelo":"50_LTS_EX"},{"id":"505841","lat":40.42677,"lng":-3.69425,"direccion":"CALLE DE GENOVA N.14","distrito":"CENTRO","barrio":"JUSTICIA","modelo":"50_LTS_EX"},{"id":"512863","lat":40.42738,"lng":-3.69543,"direccion":"CALLE DE GENOVA N.2","distrito":"CENTRO","barrio":"JUSTICIA","modelo":"50_LTS_EX"},{"id":"514388","lat":40.42291,"lng":-3.69744,"direccion":"PLAZA DE CHUECA N.7","distrito":"CENTRO","barrio":"JUSTICIA","modelo":"50_LTS_EX"},{"id":"512624","lat":40.42015,"lng":-3.70119,"direccion":"CALLE DE HORTALEZA N.1","distrito":"CENTRO","barrio":"JUSTICIA","modelo":"50_LTS_EX"},{"id":"516565","lat":40.42593,"lng":-3.69711,"direccion":"CALLE DE HORTALEZA N.114","distrito":"CENTRO","barrio":"JUSTICIA","modelo":"50_LTS_EX"},{"id":"512625","lat":40.42271,"lng":-3.69939,"direccion":"CALLE DE HORTALEZA N.45","distrito":"CENTRO","barrio":"JUSTICIA","modelo":"50_LTS_EX"},{"id":"516592","lat":40.42068,"lng":-3.70087,"direccion":"CALLE DE HORTALEZA N.7","distrito":"CENTRO","barrio":"JUSTICIA","modelo":"50_LTS_EX"},{"id":"516562","lat":40.42511,"lng":-3.69785,"direccion":"CALLE DE HORTALEZA N.73","distrito":"CENTRO","barrio":"JUSTICIA","modelo":"50_LTS_EX"},{"id":"526284","lat":40.4236,"lng":-3.69867,"direccion":"CALLE DE HORTALEZA N.80","distrito":"CENTRO","barrio":"JUSTICIA","modelo":"50_LTS_EX"},{"id":"519843","lat":40.42072,"lng":-3.69953,"direccion":"CALLE DE LAS INFANTAS N.20","distrito":"CENTRO","barrio":"JUSTICIA","modelo":"50_LTS_EX"},{"id":"516584","lat":40.41998,"lng":-3.69714,"direccion":"CALLE DE LAS INFANTAS N.27","distrito":"CENTRO","barrio":"JUSTICIA","modelo":"50_LTS_EX"},{"id":"514619","lat":40.4275,"lng":-3.69913,"direccion":"CALLE DE MEJIA LEQUERICA N.18","distrito":"CENTRO","barrio":"JUSTICIA","modelo":"50_LTS_EX"},{"id":"516549","lat":40.42822,"lng":-3.6993,"direccion":"CALLE DE MEJIA LEQUERICA N.20","distrito":"CENTRO","barrio":"JUSTICIA","modelo":"50_LTS_EX"},{"id":"514392","lat":40.42545,"lng":-3.69348,"direccion":"CALLE DEL GENERAL CASTAÑOS N.7","distrito":"CENTRO","barrio":"JUSTICIA","modelo":"50_LTS_EX"},{"id":"505950","lat":40.4265,"lng":-3.69522,"direccion":"CALLE DE ORELLANA N.8","distrito":"CENTRO","barrio":"JUSTICIA","modelo":"50_LTS_EX"},{"id":"516560","lat":40.42246,"lng":-3.69879,"direccion":"CALLE DE PELAYO N.13","distrito":"CENTRO","barrio":"JUSTICIA","modelo":"50_LTS_EX"},{"id":"512952","lat":40.42339,"lng":-3.69802,"direccion":"CALLE DE PELAYO N.40","distrito":"CENTRO","barrio":"JUSTICIA","modelo":"50_LTS_EX"},{"id":"516547","lat":40.42846,"lng":-3.70027,"direccion":"CALLE DE SAGASTA N.10","distrito":"CENTRO","barrio":"JUSTICIA","modelo":"50_LTS_EX"},{"id":"505773","lat":40.42805,"lng":-3.69817,"direccion":"CALLE DE ANTONIO FLORES N.3","distrito":"CENTRO","barrio":"JUSTICIA","modelo":"50_LTS_EX"},{"id":"516575","lat":40.42388,"lng":-3.69714,"direccion":"CALLE DE SAN GREGORIO N.13","distrito":"CENTRO","barrio":"JUSTICIA","modelo":"50_LTS_EX"},{"id":"514622","lat":40.42625,"lng":-3.69791,"direccion":"CALLE DE SAN MATEO N.23","distrito":"CENTRO","barrio":"JUSTICIA","modelo":"50_LTS_EX"},{"id":"512630","lat":40.4252,"lng":-3.70001,"direccion":"CALLE DE SAN MATEO N.8","distrito":"CENTRO","barrio":"JUSTICIA","modelo":"50_LTS_EX"},{"id":"516579","lat":40.42215,"lng":-3.69674,"direccion":"CALLE DE VALGAME DIOS N.1","distrito":"CENTRO","barrio":"JUSTICIA","modelo":"50_LTS_EX"},{"id":"506025","lat":40.4212,"lng":-3.69573,"direccion":"CALLE DEL BARQUILLO N.13","distrito":"CENTRO","barrio":"JUSTICIA","modelo":"50_LTS_EX"},{"id":"514596","lat":40.42196,"lng":-3.69574,"direccion":"CALLE DE AUGUSTO FIGUEROA N.49","distrito":"CENTRO","barrio":"JUSTICIA","modelo":"50_LTS_EX"},{"id":"514598","lat":40.42026,"lng":-3.69569,"direccion":"PLAZA DEL REY N.1","distrito":"CENTRO","barrio":"JUSTICIA","modelo":"50_LTS_EX"},{"id":"506034","lat":40.42258,"lng":-3.69425,"direccion":"CALLE DEL ALMIRANTE N.11","distrito":"CENTRO","barrio":"JUSTICIA","modelo":"50_LTS_EX"},{"id":"514393","lat":40.42577,"lng":-3.69385,"direccion":"CALLE DEL GENERAL CASTAÑOS N.11","distrito":"CENTRO","barrio":"JUSTICIA","modelo":"50_LTS_EX"},{"id":"514391","lat":40.42477,"lng":-3.69401,"direccion":"CALLE DEL GENERAL CASTAÑOS N.2","distrito":"CENTRO","barrio":"JUSTICIA","modelo":"50_LTS_EX"},{"id":"505860","lat":40.42471,"lng":-3.69234,"direccion":"CALLE DEL MARQUES DE LA ENSENADA N.12","distrito":"CENTRO","barrio":"JUSTICIA","modelo":"50_LTS_EX"},{"id":"516612","lat":40.42561,"lng":-3.69216,"direccion":"CALLE DEL MARQUES DE LA ENSENADA N.3","distrito":"CENTRO","barrio":"JUSTICIA","modelo":"50_LTS_EX"},{"id":"512627","lat":40.41914,"lng":-3.69697,"direccion":"CALLE DE ALCALA N.41","distrito":"CENTRO","barrio":"JUSTICIA","modelo":"50_LTS_EX"},{"id":"516619","lat":40.42175,"lng":-3.69226,"direccion":"PASEO DE RECOLETOS N.17","distrito":"CENTRO","barrio":"JUSTICIA","modelo":"50_LTS_EX"},{"id":"516615","lat":40.42307,"lng":-3.69168,"direccion":"PASEO DE RECOLETOS N.25","distrito":"CENTRO","barrio":"JUSTICIA","modelo":"50_LTS_EX"},{"id":"518366","lat":40.42442,"lng":-3.69107,"direccion":"PASEO DE RECOLETOS N.39","distrito":"CENTRO","barrio":"JUSTICIA","modelo":"50_LTS_EX"},{"id":"516570","lat":40.42433,"lng":-3.69433,"direccion":"CALLE DEL GENERAL CASTAÑOS N.2","distrito":"CENTRO","barrio":"JUSTICIA","modelo":"50_LTS_EX"},{"id":"505876","lat":40.42394,"lng":-3.69427,"direccion":"CALLE DE BARBARA DE BRAGANZA N.1","distrito":"CENTRO","barrio":"JUSTICIA","modelo":"50_LTS_EX"},{"id":"512629","lat":40.42664,"lng":-3.69666,"direccion":"CALLE DE HORTALEZA N.87","distrito":"CENTRO","barrio":"JUSTICIA","modelo":"50_LTS_EX"},{"id":"516568","lat":40.42696,"lng":-3.69599,"direccion":"CALLE DE ORELLANA N.1","distrito":"CENTRO","barrio":"JUSTICIA","modelo":"50_LTS_EX"},{"id":"516589","lat":40.42101,"lng":-3.69908,"direccion":"PLAZA DE PEDRO ZEROLO N.10","distrito":"CENTRO","barrio":"JUSTICIA","modelo":"50_LTS_EX"},{"id":"516500","lat":40.43008,"lng":-3.7118,"direccion":"CALLE DE ALBERTO AGUILERA N.38","distrito":"CENTRO","barrio":"UNIVERSIDAD","modelo":"50_LTS_EX"},{"id":"505590","lat":40.43024,"lng":-3.71357,"direccion":"CALLE DE ALBERTO AGUILERA N.33","distrito":"CENTRO","barrio":"UNIVERSIDAD","modelo":"50_LTS_EX"},{"id":"505614","lat":40.42971,"lng":-3.70817,"direccion":"CALLE DE ALBERTO AGUILERA N.7","distrito":"CENTRO","barrio":"UNIVERSIDAD","modelo":"50_LTS_EX"},{"id":"518367","lat":40.42709,"lng":-3.70938,"direccion":"CALLE DE AMANIEL N.30","distrito":"CENTRO","barrio":"UNIVERSIDAD","modelo":"50_LTS_EX"},{"id":"516501","lat":40.42989,"lng":-3.71047,"direccion":"CALLE DE ALBERTO AGUILERA N.21","distrito":"CENTRO","barrio":"UNIVERSIDAD","modelo":"50_LTS_EX"},{"id":"505675","lat":40.4293,"lng":-3.70487,"direccion":"CALLE DE CARRANZA N.25","distrito":"CENTRO","barrio":"UNIVERSIDAD","modelo":"50_LTS_EX"},{"id":"505686","lat":40.42899,"lng":-3.70298,"direccion":"CALLE DE CARRANZA N.5","distrito":"CENTRO","barrio":"UNIVERSIDAD","modelo":"50_LTS_EX"},{"id":"512528","lat":40.42435,"lng":-3.70427,"direccion":"CALLE DE EL ESCORIAL N.28","distrito":"CENTRO","barrio":"UNIVERSIDAD","modelo":"50_LTS_EX"},{"id":"512623","lat":40.42189,"lng":-3.701,"direccion":"CALLE DE FUENCARRAL N.27","distrito":"CENTRO","barrio":"UNIVERSIDAD","modelo":"50_LTS_EX"},{"id":"516553","lat":40.42259,"lng":-3.7008,"direccion":"CALLE DE FUENCARRAL N.36","distrito":"CENTRO","barrio":"UNIVERSIDAD","modelo":"50_LTS_EX"},{"id":"512553","lat":40.42504,"lng":-3.70084,"direccion":"CALLE DE FUENCARRAL N.75","distrito":"CENTRO","barrio":"UNIVERSIDAD","modelo":"50_LTS_EX"},{"id":"512545","lat":40.42548,"lng":-3.70185,"direccion":"CALLE DE LA CORREDERA ALTA DE SAN PABLO N.20","distrito":"CENTRO","barrio":"UNIVERSIDAD","modelo":"50_LTS_EX"},{"id":"524484","lat":40.42158,"lng":-3.70495,"direccion":"CALLE DE LA CORREDERA BAJA DE SAN PABLO N.1","distrito":"CENTRO","barrio":"UNIVERSIDAD","modelo":"50_LTS_EX"},{"id":"516324","lat":40.42188,"lng":-3.70554,"direccion":"CALLE DE LA LUNA N.1","distrito":"CENTRO","barrio":"UNIVERSIDAD","modelo":"50_LTS_EX"},{"id":"518854","lat":40.42122,"lng":-3.7049,"direccion":"CALLE DE LA LUNA N.2","distrito":"CENTRO","barrio":"UNIVERSIDAD","modelo":"50_LTS_EX"},{"id":"514565","lat":40.42637,"lng":-3.70418,"direccion":"CALLE DE LA PALMA N.30","distrito":"CENTRO","barrio":"UNIVERSIDAD","modelo":"50_LTS_EX"},{"id":"516483","lat":40.42598,"lng":-3.71275,"direccion":"CALLE DE LA PRINCESA N.16","distrito":"CENTRO","barrio":"UNIVERSIDAD","modelo":"50_LTS_EX"},{"id":"502521","lat":40.42733,"lng":-3.71374,"direccion":"CALLE DE LA PRINCESA N.24","distrito":"CENTRO","barrio":"UNIVERSIDAD","modelo":"50_LTS_EX"},{"id":"514559","lat":40.43042,"lng":-3.71597,"direccion":"CALLE DE LA PRINCESA N.56","distrito":"CENTRO","barrio":"UNIVERSIDAD","modelo":"50_LTS_EX"},{"id":"512529","lat":40.42489,"lng":-3.70658,"direccion":"CALLE DE LAS POZAS N.10","distrito":"CENTRO","barrio":"UNIVERSIDAD","modelo":"50_LTS_EX"},{"id":"525823","lat":40.42562,"lng":-3.70932,"direccion":"CALLE DE AMANIEL N.9","distrito":"CENTRO","barrio":"UNIVERSIDAD","modelo":"50_LTS_EX"},{"id":"516538","lat":40.42913,"lng":-3.70378,"direccion":"CALLE DE CARRANZA N.11","distrito":"CENTRO","barrio":"UNIVERSIDAD","modelo":"50_LTS_EX"},{"id":"514567","lat":40.42693,"lng":-3.70378,"direccion":"CALLE DE SAN ANDRES N.18","distrito":"CENTRO","barrio":"UNIVERSIDAD","modelo":"50_LTS_EX"},{"id":"503226","lat":40.4221,"lng":-3.70766,"direccion":"CALLE DE SAN BERNARDO N.10","distrito":"CENTRO","barrio":"UNIVERSIDAD","modelo":"50_LTS_EX"},{"id":"516526","lat":40.42544,"lng":-3.70728,"direccion":"CALLE DE SAN BERNARDO N.58","distrito":"CENTRO","barrio":"UNIVERSIDAD","modelo":"50_LTS_EX"},{"id":"526183","lat":40.42617,"lng":-3.70692,"direccion":"CALLE DE SAN BERNARDO N.59","distrito":"CENTRO","barrio":"UNIVERSIDAD","modelo":"50_LTS_EX"},{"id":"514617","lat":40.42798,"lng":-3.70614,"direccion":"CALLE DE SAN BERNARDO N.74","distrito":"CENTRO","barrio":"UNIVERSIDAD","modelo":"50_LTS_EX"},{"id":"516517","lat":40.42755,"lng":-3.70645,"direccion":"CALLE DE QUIÑONES N.1","distrito":"CENTRO","barrio":"UNIVERSIDAD","modelo":"50_LTS_EX"},{"id":"516530","lat":40.42884,"lng":-3.70594,"direccion":"CALLE DE SAN BERNARDO N.88","distrito":"CENTRO","barrio":"UNIVERSIDAD","modelo":"50_LTS_EX"},{"id":"505647","lat":40.42896,"lng":-3.70615,"direccion":"CALLE DE SAN BERNARDO N.91","distrito":"CENTRO","barrio":"UNIVERSIDAD","modelo":"50_LTS_EX"},{"id":"512547","lat":40.42598,"lng":-3.70585,"direccion":"COSTANILLA DE SAN VICENTE N.1","distrito":"CENTRO","barrio":"UNIVERSIDAD","modelo":"50_LTS_EX"},{"id":"502333","lat":40.4263,"lng":-3.70923,"direccion":"CALLE DE SAN VICENTE FERRER N.92","distrito":"CENTRO","barrio":"UNIVERSIDAD","modelo":"50_LTS_EX"},{"id":"516512","lat":40.42879,"lng":-3.70766,"direccion":"CALLE DEL ACUERDO N.34","distrito":"CENTRO","barrio":"UNIVERSIDAD","modelo":"50_LTS_EX"},{"id":"516495","lat":40.42981,"lng":-3.7142,"direccion":"CALLE DE SERRANO JOVER N.4","distrito":"CENTRO","barrio":"UNIVERSIDAD","modelo":"50_LTS_EX"},{"id":"505576","lat":40.42915,"lng":-3.71501,"direccion":"CALLE DE LA PRINCESA N.38","distrito":"CENTRO","barrio":"UNIVERSIDAD","modelo":"50_LTS_EX"},{"id":"516498","lat":40.43028,"lng":-3.71415,"direccion":"CALLE DE SERRANO JOVER N.5","distrito":"CENTRO","barrio":"UNIVERSIDAD","modelo":"50_LTS_EX"},{"id":"512541","lat":40.42106,"lng":-3.70665,"direccion":"CALLE DE SILVA N.10","distrito":"CENTRO","barrio":"UNIVERSIDAD","modelo":"50_LTS_EX"},{"id":"516321","lat":40.42203,"lng":-3.70172,"direccion":"CALLE DE VALVERDE N.24","distrito":"CENTRO","barrio":"UNIVERSIDAD","modelo":"50_LTS_EX"},{"id":"512551","lat":40.42687,"lng":-3.70324,"direccion":"CALLE DE VELARDE N.13","distrito":"CENTRO","barrio":"UNIVERSIDAD","modelo":"50_LTS_EX"},{"id":"512525","lat":40.4226,"lng":-3.70252,"direccion":"CALLE DEL BARCO N.31","distrito":"CENTRO","barrio":"UNIVERSIDAD","modelo":"50_LTS_EX"},{"id":"502463","lat":40.426321,"lng":-3.711372,"direccion":"CALLE DEL CONDE DUQUE N.7","distrito":"CENTRO","barrio":"UNIVERSIDAD","modelo":"50_LTS_EX"},{"id":"514389","lat":40.42855,"lng":-3.70983,"direccion":"CALLE DEL CONDE DUQUE N.11","distrito":"CENTRO","barrio":"UNIVERSIDAD","modelo":"50_LTS_EX"},{"id":"516508","lat":40.42916,"lng":-3.70921,"direccion":"CALLE DEL CONDE DUQUE N.44","distrito":"CENTRO","barrio":"UNIVERSIDAD","modelo":"50_LTS_EX"},{"id":"514385","lat":40.42067,"lng":-3.70286,"direccion":"CALLE DEL DESENGAÑO N.5","distrito":"CENTRO","barrio":"UNIVERSIDAD","modelo":"50_LTS_EX"},{"id":"512523","lat":40.42092,"lng":-3.70352,"direccion":"CALLE DEL DESENGAÑO N.9","distrito":"CENTRO","barrio":"UNIVERSIDAD","modelo":"50_LTS_EX"},{"id":"516541","lat":40.42728,"lng":-3.70178,"direccion":"CALLE DEL DIVINO PASTOR N.1","distrito":"CENTRO","barrio":"UNIVERSIDAD","modelo":"50_LTS_EX"},{"id":"512550","lat":40.42759,"lng":-3.70345,"direccion":"CALLE DEL DIVINO PASTOR N.6","distrito":"CENTRO","barrio":"UNIVERSIDAD","modelo":"50_LTS_EX"},{"id":"516503","lat":40.42576,"lng":-3.71199,"direccion":"CALLE DEL DUQUE DE LIRIA N.1","distrito":"CENTRO","barrio":"UNIVERSIDAD","modelo":"50_LTS_EX"},{"id":"512543","lat":40.42559,"lng":-3.70497,"direccion":"CALLE DEL ESPIRITU SANTO N.38","distrito":"CENTRO","barrio":"UNIVERSIDAD","modelo":"50_LTS_EX"},{"id":"516476","lat":40.42395,"lng":-3.71029,"direccion":"CALLE DEL MAESTRO GUERRERO N.2","distrito":"CENTRO","barrio":"UNIVERSIDAD","modelo":"50_LTS_EX"},{"id":"516479","lat":40.42447,"lng":-3.71074,"direccion":"CALLE DE LOS DOS AMIGOS N.9","distrito":"CENTRO","barrio":"UNIVERSIDAD","modelo":"50_LTS_EX"},{"id":"528098","lat":40.42398,"lng":-3.70579,"direccion":"CALLE DEL PEZ N.28","distrito":"CENTRO","barrio":"UNIVERSIDAD","modelo":"50_LTS_EX"},{"id":"516520","lat":40.42534,"lng":-3.70373,"direccion":"CALLE DEL ESPIRITU SANTO N.24","distrito":"CENTRO","barrio":"UNIVERSIDAD","modelo":"50_LTS_EX"},{"id":"516524","lat":40.42434,"lng":-3.70682,"direccion":"CALLE DEL PEZ N.38","distrito":"CENTRO","barrio":"UNIVERSIDAD","modelo":"50_LTS_EX"},{"id":"516490","lat":40.42816,"lng":-3.71365,"direccion":"CALLE DEL SEMINARIO DE NOBLES N.4","distrito":"CENTRO","barrio":"UNIVERSIDAD","modelo":"50_LTS_EX"},{"id":"512544","lat":40.42503,"lng":-3.70581,"direccion":"CALLE DEL TESORO N.22","distrito":"CENTRO","barrio":"UNIVERSIDAD","modelo":"50_LTS_EX"},{"id":"501667","lat":40.42312,"lng":-3.71007,"direccion":"CALLE  GRAN VIA N.76","distrito":"CENTRO","barrio":"UNIVERSIDAD","modelo":"50_LTS_EX"},{"id":"514386","lat":40.42317,"lng":-3.70402,"direccion":"PLAZA DE CARLOS CAMBRONERO N.2","distrito":"CENTRO","barrio":"UNIVERSIDAD","modelo":"50_LTS_EX"},{"id":"514390","lat":40.42718,"lng":-3.71044,"direccion":"CALLE DEL CONDE DUQUE N.22","distrito":"CENTRO","barrio":"UNIVERSIDAD","modelo":"50_LTS_EX"},{"id":"514387","lat":40.42416,"lng":-3.70207,"direccion":"PLAZA DE SAN ILDEFONSO N.4","distrito":"CENTRO","barrio":"UNIVERSIDAD","modelo":"50_LTS_EX"},{"id":"514384","lat":40.42436,"lng":-3.7092,"direccion":"PLAZA DEL CONDE DE TORENO N.1","distrito":"CENTRO","barrio":"UNIVERSIDAD","modelo":"50_LTS_EX"},{"id":"514566","lat":40.42707,"lng":-3.7044,"direccion":"PLAZA DEL DOS DE MAYO N.3","distrito":"CENTRO","barrio":"UNIVERSIDAD","modelo":"50_LTS_EX"},{"id":"518361","lat":40.41726,"lng":-3.70297,"direccion":"CALLE DE LA MONTERA N.2","distrito":"CENTRO","barrio":"SOL","modelo":"50_LTS_EX"},{"id":"518363","lat":40.41965,"lng":-3.70169,"direccion":"CALLE DE LA MONTERA N.46","distrito":"CENTRO","barrio":"SOL","modelo":"50_LTS_EX"},{"id":"514602","lat":40.41909,"lng":-3.70337,"direccion":"CALLE DE LA SALUD N.11","distrito":"CENTRO","barrio":"SOL","modelo":"50_LTS_EX"},{"id":"512631","lat":40.41987,"lng":-3.70299,"direccion":"CALLE DE LA SALUD N.12","distrito":"CENTRO","barrio":"SOL","modelo":"50_LTS_EX"},{"id":"518360","lat":40.41562,"lng":-3.70628,"direccion":"CALLE DE LAS POSTAS N.17","distrito":"CENTRO","barrio":"SOL","modelo":"50_LTS_EX"},{"id":"524328","lat":40.41975,"lng":-3.70771,"direccion":"CALLE DE PRECIADOS N.46","distrito":"CENTRO","barrio":"SOL","modelo":"50_LTS_EX"},{"id":"518484","lat":40.41469,"lng":-3.70804,"direccion":"CALLE DE LOS CUCHILLEROS N.5","distrito":"CENTRO","barrio":"SOL","modelo":"50_LTS_EX"},{"id":"514558","lat":40.41954,"lng":-3.70446,"direccion":"CALLE DE LA ABADA N.9","distrito":"CENTRO","barrio":"SOL","modelo":"50_LTS_EX"},{"id":"515934","lat":40.41402,"lng":-3.70553,"direccion":"CALLE DE LA CONCEPCION JERONIMA N.14","distrito":"CENTRO","barrio":"SOL","modelo":"50_LTS_EX"},{"id":"516629","lat":40.41927,"lng":-3.69985,"direccion":"CALLE DEL CABALLERO DE GRACIA N.24","distrito":"CENTRO","barrio":"SOL","modelo":"50_LTS_EX"},{"id":"516856","lat":40.41575,"lng":-3.70441,"direccion":"CALLE DEL MARQUES VIUDO DE PONTEJOS N.1","distrito":"CENTRO","barrio":"SOL","modelo":"50_LTS_EX"},{"id":"518364","lat":40.41957,"lng":-3.70584,"direccion":"CALLE DE PRECIADOS N.25","distrito":"CENTRO","barrio":"SOL","modelo":"50_LTS_EX"},{"id":"514381","lat":40.41615,"lng":-3.70812,"direccion":"CALLE  MAYOR N.36","distrito":"CENTRO","barrio":"SOL","modelo":"50_LTS_EX"},{"id":"512632","lat":40.42016,"lng":-3.70571,"direccion":"PLAZA DEL CALLAO N.3","distrito":"CENTRO","barrio":"SOL","modelo":"50_LTS_EX"},{"id":"516862","lat":40.41656,"lng":-3.7006,"direccion":"PLAZA DE CANALEJAS N.6","distrito":"CENTRO","barrio":"SOL","modelo":"50_LTS_EX"},{"id":"514524","lat":40.41804,"lng":-3.70602,"direccion":"PLAZA DE LAS DESCALZAS N.1","distrito":"CENTRO","barrio":"SOL","modelo":"50_LTS_EX"},{"id":"514376","lat":40.41489,"lng":-3.70547,"direccion":"CALLE DE ATOCHA N.1","distrito":"CENTRO","barrio":"SOL","modelo":"50_LTS_EX"},{"id":"518362","lat":40.41863,"lng":-3.70316,"direccion":"PLAZA DEL CARMEN N.10","distrito":"CENTRO","barrio":"SOL","modelo":"50_LTS_EX"},{"id":"518485","lat":40.41723,"lng":-3.70607,"direccion":"CALLE DEL ARENAL N.14","distrito":"CENTRO","barrio":"SOL","modelo":"50_LTS_EX"},{"id":"512444","lat":40.41577,"lng":-3.7087,"direccion":"TRAVESIA DE BRINGAS N.1","distrito":"CENTRO","barrio":"SOL","modelo":"50_LTS_EX"},{"id":"518177","lat":40.4066,"lng":-3.72018,"direccion":"CALLE DE BERCIAL N.7","distrito":"ARGANZUELA","barrio":"IMPERIAL","modelo":"50_LTS_EX"},{"id":"516064","lat":40.40498,"lng":-3.71884,"direccion":"CALLE DE COBOS DE SEGOVIA N.9","distrito":"ARGANZUELA","barrio":"IMPERIAL","modelo":"50_LTS_EX"},{"id":"516067","lat":40.40597,"lng":-3.7193,"direccion":"CALLE DE COBOS DE SEGOVIA N.14","distrito":"ARGANZUELA","barrio":"IMPERIAL","modelo":"50_LTS_EX"},{"id":"516042","lat":40.40844,"lng":-3.71918,"direccion":"CALLE DE JEMENUÑO N.2","distrito":"ARGANZUELA","barrio":"IMPERIAL","modelo":"50_LTS_EX"},{"id":"514411","lat":40.41166,"lng":-3.71943,"direccion":"CALLE DE JUAN DUQUE N.26","distrito":"ARGANZUELA","barrio":"IMPERIAL","modelo":"50_LTS_EX"},{"id":"476184","lat":40.40968,"lng":-3.72055,"direccion":"CALLE DE LINNEO N.35","distrito":"ARGANZUELA","barrio":"IMPERIAL","modelo":"50_LTS_EX"},{"id":"514409","lat":40.41212,"lng":-3.72114,"direccion":"CALLE DE MORENO NIETO N.20","distrito":"ARGANZUELA","barrio":"IMPERIAL","modelo":"50_LTS_EX"},{"id":"518178","lat":40.40424,"lng":-3.71931,"direccion":"CALLE DE PARADINAS N.23","distrito":"ARGANZUELA","barrio":"IMPERIAL","modelo":"50_LTS_EX"},{"id":"516087","lat":40.40168,"lng":-3.71886,"direccion":"CALLE DE SAN EPIFANIO N.7","distrito":"ARGANZUELA","barrio":"IMPERIAL","modelo":"50_LTS_EX"},{"id":"516073","lat":40.41384,"lng":-3.71909,"direccion":"CALLE DE SEGOVIA N.63","distrito":"ARGANZUELA","barrio":"IMPERIAL","modelo":"50_LTS_EX"},{"id":"516059","lat":40.40467,"lng":-3.71285,"direccion":"CALLE DE TOLEDO N.134","distrito":"ARGANZUELA","barrio":"IMPERIAL","modelo":"50_LTS_EX"},{"id":"490599","lat":40.40198,"lng":-3.71413,"direccion":"CALLE DE TOLEDO N.178","distrito":"ARGANZUELA","barrio":"IMPERIAL","modelo":"50_LTS_EX"},{"id":"516050","lat":40.4071,"lng":-3.71624,"direccion":"CALLE DE VILLOSLADA N.1","distrito":"ARGANZUELA","barrio":"IMPERIAL","modelo":"50_LTS_EX"},{"id":"490782","lat":40.40615,"lng":-3.71586,"direccion":"CALLE DE VILLOSLADA N.20","distrito":"ARGANZUELA","barrio":"IMPERIAL","modelo":"50_LTS_EX"},{"id":"490800","lat":40.40647,"lng":-3.71233,"direccion":"GLORIETA DE LA PUERTA DE TOLEDO N.4","distrito":"ARGANZUELA","barrio":"IMPERIAL","modelo":"50_LTS_EX"},{"id":"519080","lat":40.40034,"lng":-3.71468,"direccion":"CALLE DE ALEJANDRO DUMAS N.2","distrito":"ARGANZUELA","barrio":"IMPERIAL","modelo":"50_LTS_EX"},{"id":"514694","lat":40.41385,"lng":-3.72186,"direccion":"CALLE DE SEGOVIA N.81","distrito":"ARGANZUELA","barrio":"IMPERIAL","modelo":"50_LTS_EX"},{"id":"514406","lat":40.40371,"lng":-3.71477,"direccion":"PASEO DE JUAN ANTONIO VALLEJO-NAJERA BOTAS N.55","distrito":"ARGANZUELA","barrio":"IMPERIAL","modelo":"50_LTS_EX"},{"id":"514692","lat":40.41058,"lng":-3.72198,"direccion":"PARQUE  MADRID RIO K.300","distrito":"ARGANZUELA","barrio":"IMPERIAL","modelo":"50_LTS_EX"},{"id":"514685","lat":40.4096,"lng":-3.72133,"direccion":"PARQUE  MADRID RIO K.320","distrito":"ARGANZUELA","barrio":"IMPERIAL","modelo":"50_LTS_EX"},{"id":"490636","lat":40.40833,"lng":-3.72131,"direccion":"PASEO DE LA VIRGEN DEL PUERTO N.51","distrito":"ARGANZUELA","barrio":"IMPERIAL","modelo":"50_LTS_EX"},{"id":"490629","lat":40.40633,"lng":-3.72207,"direccion":"PASEO DE LA VIRGEN DEL PUERTO N.57","distrito":"ARGANZUELA","barrio":"IMPERIAL","modelo":"50_LTS_EX"},{"id":"514681","lat":40.40542,"lng":-3.7222,"direccion":"PASEO DE LA VIRGEN DEL PUERTO N.59","distrito":"ARGANZUELA","barrio":"IMPERIAL","modelo":"50_LTS_EX"},{"id":"512404","lat":40.4047,"lng":-3.72214,"direccion":"PASEO DE LA VIRGEN DEL PUERTO N.65","distrito":"ARGANZUELA","barrio":"IMPERIAL","modelo":"50_LTS_EX"},{"id":"514405","lat":40.40319,"lng":-3.72042,"direccion":"PASEO DE LOS MELANCOLICOS N.28","distrito":"ARGANZUELA","barrio":"IMPERIAL","modelo":"50_LTS_EX"},{"id":"516082","lat":40.4098,"lng":-3.71881,"direccion":"PASEO DE LOS MELANCOLICOS N.4","distrito":"ARGANZUELA","barrio":"IMPERIAL","modelo":"50_LTS_EX"},{"id":"516039","lat":40.40516,"lng":-3.7174,"direccion":"PASEO  IMPERIAL N.26","distrito":"ARGANZUELA","barrio":"IMPERIAL","modelo":"50_LTS_EX"},{"id":"516054","lat":40.4054,"lng":-3.71468,"direccion":"PASEO DE LOS PONTONES N.8","distrito":"ARGANZUELA","barrio":"IMPERIAL","modelo":"50_LTS_EX"},{"id":"490771","lat":40.40725,"lng":-3.71704,"direccion":"PASEO  IMPERIAL N.35","distrito":"ARGANZUELA","barrio":"IMPERIAL","modelo":"50_LTS_EX"},{"id":"517337","lat":40.408593,"lng":-3.71738,"direccion":"PASEO  IMPERIAL N.19","distrito":"ARGANZUELA","barrio":"IMPERIAL","modelo":"50_LTS_EX"},{"id":"516036","lat":40.41056,"lng":-3.7183,"direccion":"PASEO  IMPERIAL N.2","distrito":"ARGANZUELA","barrio":"IMPERIAL","modelo":"50_LTS_EX"},{"id":"490603","lat":40.40229,"lng":-3.71511,"direccion":"PASEO  IMPERIAL N.89","distrito":"ARGANZUELA","barrio":"IMPERIAL","modelo":"50_LTS_EX"},{"id":"516046","lat":40.40868,"lng":-3.7169,"direccion":"RONDA DE SEGOVIA N.16","distrito":"ARGANZUELA","barrio":"IMPERIAL","modelo":"50_LTS_EX"},{"id":"490819","lat":40.41235,"lng":-3.71776,"direccion":"RONDA DE SEGOVIA N.2","distrito":"ARGANZUELA","barrio":"IMPERIAL","modelo":"50_LTS_EX"},{"id":"490794","lat":40.40718,"lng":-3.7135,"direccion":"RONDA DE SEGOVIA N.48","distrito":"ARGANZUELA","barrio":"IMPERIAL","modelo":"50_LTS_EX"},{"id":"490792","lat":40.40705,"lng":-3.71414,"direccion":"TRAVESIA DE GIL IMON N.11","distrito":"ARGANZUELA","barrio":"IMPERIAL","modelo":"50_LTS_EX"},{"id":"491538","lat":40.39984,"lng":-3.70569,"direccion":"CALLE DE ARGANDA N.40","distrito":"ARGANZUELA","barrio":"ACACIAS","modelo":"50_LTS_EX"},{"id":"490326","lat":40.40243,"lng":-3.70072,"direccion":"CALLE DE EMBAJADORES N.100","distrito":"ARGANZUELA","barrio":"ACACIAS","modelo":"50_LTS_EX"},{"id":"518496","lat":40.40099,"lng":-3.70127,"direccion":"PASEO DE JUAN ANTONIO VALLEJO-NAJERA BOTAS N.3","distrito":"ARGANZUELA","barrio":"ACACIAS","modelo":"50_LTS_EX"},{"id":"514402","lat":40.399,"lng":-3.70382,"direccion":"CALLE DE GARGANTILLA N.2","distrito":"ARGANZUELA","barrio":"ACACIAS","modelo":"50_LTS_EX"},{"id":"490469","lat":40.40493,"lng":-3.70677,"direccion":"CALLE DE LA RIBERA DE CURTIDORES N.43","distrito":"ARGANZUELA","barrio":"ACACIAS","modelo":"50_LTS_EX"},{"id":"520953","lat":40.3974,"lng":-3.707,"direccion":"CALLE DE LAS NAVES N.2","distrito":"ARGANZUELA","barrio":"ACACIAS","modelo":"50_LTS_EX"},{"id":"491404","lat":40.39834,"lng":-3.70517,"direccion":"CALLE DE LAS NAVES N.30","distrito":"ARGANZUELA","barrio":"ACACIAS","modelo":"50_LTS_EX"},{"id":"516102","lat":40.4012,"lng":-3.70799,"direccion":"CALLE DE ARGANDA N.5","distrito":"ARGANZUELA","barrio":"ACACIAS","modelo":"50_LTS_EX"},{"id":"519189","lat":40.40072,"lng":-3.70864,"direccion":"CALLE DE MELILLA N.31","distrito":"ARGANZUELA","barrio":"ACACIAS","modelo":"50_LTS_EX"},{"id":"521466","lat":40.40031,"lng":-3.71056,"direccion":"CALLE DE MELILLA N.65","distrito":"ARGANZUELA","barrio":"ACACIAS","modelo":"50_LTS_EX"},{"id":"521467","lat":40.40162,"lng":-3.70952,"direccion":"CALLE DE MELILLA N.9","distrito":"ARGANZUELA","barrio":"ACACIAS","modelo":"50_LTS_EX"},{"id":"516123","lat":40.40294,"lng":-3.70301,"direccion":"CALLE DE ERCILLA N.15","distrito":"ARGANZUELA","barrio":"ACACIAS","modelo":"50_LTS_EX"},{"id":"490396","lat":40.40161,"lng":-3.70476,"direccion":"CALLE DE MORATINES N.27","distrito":"ARGANZUELA","barrio":"ACACIAS","modelo":"50_LTS_EX"},{"id":"517029","lat":40.40484,"lng":-3.71228,"direccion":"CALLE DE TOLEDO N.139","distrito":"ARGANZUELA","barrio":"ACACIAS","modelo":"50_LTS_EX"},{"id":"514416","lat":40.40574,"lng":-3.70848,"direccion":"CALLE DEL GASOMETRO N.1","distrito":"ARGANZUELA","barrio":"ACACIAS","modelo":"50_LTS_EX"},{"id":"516301","lat":40.40135,"lng":-3.70241,"direccion":"CALLE DEL LABRADOR N.18","distrito":"ARGANZUELA","barrio":"ACACIAS","modelo":"50_LTS_EX"},{"id":"518283","lat":40.40219,"lng":-3.70418,"direccion":"CALLE DEL LAUREL N.27","distrito":"ARGANZUELA","barrio":"ACACIAS","modelo":"50_LTS_EX"},{"id":"514705","lat":40.40448,"lng":-3.70234,"direccion":"CALLE DE EMBAJADORES N.72","distrito":"ARGANZUELA","barrio":"ACACIAS","modelo":"50_LTS_EX"},{"id":"516094","lat":40.40624,"lng":-3.71139,"direccion":"PASEO DE LOS OLMOS N.1","distrito":"ARGANZUELA","barrio":"ACACIAS","modelo":"50_LTS_EX"},{"id":"490330","lat":40.40093,"lng":-3.70036,"direccion":"GLORIETA DE SANTA MARIA DE LA CABEZA N.13","distrito":"ARGANZUELA","barrio":"ACACIAS","modelo":"50_LTS_EX"},{"id":"514404","lat":40.40114,"lng":-3.69966,"direccion":"GLORIETA DE SANTA MARIA DE LA CABEZA N.14","distrito":"ARGANZUELA","barrio":"ACACIAS","modelo":"50_LTS_EX"},{"id":"513638","lat":40.40115,"lng":-3.70364,"direccion":"PASEO DE JUAN ANTONIO VALLEJO-NAJERA BOTAS N.11","distrito":"ARGANZUELA","barrio":"ACACIAS","modelo":"50_LTS_EX"},{"id":"490417","lat":40.40135,"lng":-3.70586,"direccion":"PASEO DE JUAN ANTONIO VALLEJO-NAJERA BOTAS N.17","distrito":"ARGANZUELA","barrio":"ACACIAS","modelo":"50_LTS_EX"},{"id":"490425","lat":40.402,"lng":-3.70782,"direccion":"PASEO DE JUAN ANTONIO VALLEJO-NAJERA BOTAS N.25","distrito":"ARGANZUELA","barrio":"ACACIAS","modelo":"50_LTS_EX"},{"id":"514408","lat":40.4021,"lng":-3.70882,"direccion":"PASEO DE JUAN ANTONIO VALLEJO-NAJERA BOTAS N.25","distrito":"ARGANZUELA","barrio":"ACACIAS","modelo":"50_LTS_EX"},{"id":"516098","lat":40.40303,"lng":-3.71249,"direccion":"PASEO DE JUAN ANTONIO VALLEJO-NAJERA BOTAS N.45","distrito":"ARGANZUELA","barrio":"ACACIAS","modelo":"50_LTS_EX"},{"id":"514407","lat":40.40116,"lng":-3.705,"direccion":"PASEO DE JUAN ANTONIO VALLEJO-NAJERA BOTAS N.15","distrito":"ARGANZUELA","barrio":"ACACIAS","modelo":"50_LTS_EX"},{"id":"491580","lat":40.39949,"lng":-3.7036,"direccion":"PASEO DE LA ESPERANZA N.39","distrito":"ARGANZUELA","barrio":"ACACIAS","modelo":"50_LTS_EX"},{"id":"518172","lat":40.40285,"lng":-3.70598,"direccion":"PASEO DE LA ESPERANZA N.8","distrito":"ARGANZUELA","barrio":"ACACIAS","modelo":"50_LTS_EX"},{"id":"516139","lat":40.40486,"lng":-3.70359,"direccion":"PASEO DE LAS ACACIAS N.1","distrito":"ARGANZUELA","barrio":"ACACIAS","modelo":"50_LTS_EX"},{"id":"516352","lat":40.40411,"lng":-3.70544,"direccion":"PASEO DE LAS ACACIAS N.19","distrito":"ARGANZUELA","barrio":"ACACIAS","modelo":"50_LTS_EX"},{"id":"516118","lat":40.40331,"lng":-3.70837,"direccion":"PASEO DE LAS ACACIAS N.31","distrito":"ARGANZUELA","barrio":"ACACIAS","modelo":"50_LTS_EX"},{"id":"491442","lat":40.39703,"lng":-3.70484,"direccion":"PASEO DE LAS YESERIAS N.10","distrito":"ARGANZUELA","barrio":"ACACIAS","modelo":"50_LTS_EX"},{"id":"518171","lat":40.39957,"lng":-3.71114,"direccion":"PASEO DE LAS YESERIAS N.13","distrito":"ARGANZUELA","barrio":"ACACIAS","modelo":"50_LTS_EX"},{"id":"522274","lat":40.39909,"lng":-3.71027,"direccion":"PASEO DE LAS YESERIAS N.19","distrito":"ARGANZUELA","barrio":"ACACIAS","modelo":"50_LTS_EX"},{"id":"520137","lat":40.398,"lng":-3.70818,"direccion":"PASEO DE LAS YESERIAS N.6","distrito":"ARGANZUELA","barrio":"ACACIAS","modelo":"50_LTS_EX"},{"id":"518279","lat":40.40445,"lng":-3.71102,"direccion":"PASEO DE LOS OLMOS N.18","distrito":"ARGANZUELA","barrio":"ACACIAS","modelo":"50_LTS_EX"},{"id":"513179","lat":40.39904,"lng":-3.70126,"direccion":"PASEO DE SANTA MARIA DE LA CABEZA N.76","distrito":"ARGANZUELA","barrio":"ACACIAS","modelo":"50_LTS_EX"},{"id":"516300","lat":40.40044,"lng":-3.7031,"direccion":"PLAZA DE LAS PEÑUELAS N.10","distrito":"ARGANZUELA","barrio":"ACACIAS","modelo":"50_LTS_EX"},{"id":"514403","lat":40.40077,"lng":-3.70255,"direccion":"PLAZA DE LAS PEÑUELAS N.7","distrito":"ARGANZUELA","barrio":"ACACIAS","modelo":"50_LTS_EX"},{"id":"490530","lat":40.40291,"lng":-3.71103,"direccion":"TRAVESIA DE SAN ISIDORO DE SEVILLA N.15","distrito":"ARGANZUELA","barrio":"ACACIAS","modelo":"50_LTS_EX"},{"id":"518180","lat":40.40536,"lng":-3.70533,"direccion":"RONDA DE TOLEDO N.30","distrito":"ARGANZUELA","barrio":"ACACIAS","modelo":"50_LTS_EX"},{"id":"491817","lat":40.39737,"lng":-3.70049,"direccion":"CALLE DE AGUILON N.15","distrito":"ARGANZUELA","barrio":"CHOPERA","modelo":"50_LTS_EX"},{"id":"514769","lat":40.39405,"lng":-3.69642,"direccion":"CALLE DE GUILLERMO DE OSMA N.11","distrito":"ARGANZUELA","barrio":"CHOPERA","modelo":"50_LTS_EX"},{"id":"514708","lat":40.39383,"lng":-3.69781,"direccion":"CALLE DE GUILLERMO DE OSMA N.18","distrito":"ARGANZUELA","barrio":"CHOPERA","modelo":"50_LTS_EX"},{"id":"516230","lat":40.39737,"lng":-3.69819,"direccion":"CALLE DE JAIME EL CONQUISTADOR N.12","distrito":"ARGANZUELA","barrio":"CHOPERA","modelo":"50_LTS_EX"},{"id":"493962","lat":40.39571,"lng":-3.69814,"direccion":"CALLE DE ALDEA DEL FRESNO N.18","distrito":"ARGANZUELA","barrio":"CHOPERA","modelo":"50_LTS_EX"},{"id":"493935","lat":40.39478,"lng":-3.69855,"direccion":"CALLE DE JAIME EL CONQUISTADOR N.48","distrito":"ARGANZUELA","barrio":"CHOPERA","modelo":"50_LTS_EX"},{"id":"516147","lat":40.39804,"lng":-3.69949,"direccion":"CALLE DE TORRES MIRANDA N.12","distrito":"ARGANZUELA","barrio":"CHOPERA","modelo":"50_LTS_EX"},{"id":"491856","lat":40.40054,"lng":-3.69927,"direccion":"GLORIETA DE SANTA MARIA DE LA CABEZA N.8","distrito":"ARGANZUELA","barrio":"CHOPERA","modelo":"50_LTS_EX"},{"id":"493906","lat":40.39338,"lng":-3.69839,"direccion":"PASEO DE LA CHOPERA N.10","distrito":"ARGANZUELA","barrio":"CHOPERA","modelo":"50_LTS_EX"},{"id":"514707","lat":40.39539,"lng":-3.70057,"direccion":"PASEO DE LA CHOPERA N.29","distrito":"ARGANZUELA","barrio":"CHOPERA","modelo":"50_LTS_EX"},{"id":"518166","lat":40.39563,"lng":-3.70151,"direccion":"PASEO DE LA CHOPERA N.4","distrito":"ARGANZUELA","barrio":"CHOPERA","modelo":"50_LTS_EX"},{"id":"518165","lat":40.3945,"lng":-3.70001,"direccion":"PASEO DE LA CHOPERA N.8","distrito":"ARGANZUELA","barrio":"CHOPERA","modelo":"50_LTS_EX"},{"id":"493814","lat":40.39285,"lng":-3.69503,"direccion":"PASEO DE LAS DELICIAS N.136","distrito":"ARGANZUELA","barrio":"CHOPERA","modelo":"50_LTS_EX"},{"id":"514706","lat":40.39852,"lng":-3.70133,"direccion":"PASEO DE SANTA MARIA DE LA CABEZA N.77","distrito":"ARGANZUELA","barrio":"CHOPERA","modelo":"50_LTS_EX"},{"id":"516155","lat":40.38976,"lng":-3.69753,"direccion":"PARQUE  MADRID RIO K.650","distrito":"ARGANZUELA","barrio":"CHOPERA","modelo":"50_LTS_EX"},{"id":"514396","lat":40.39305,"lng":-3.68234,"direccion":"AVENIDA DEL PLANETARIO N.13","distrito":"ARGANZUELA","barrio":"LEGAZPI","modelo":"50_LTS_EX"},{"id":"488686","lat":40.39312,"lng":-3.67972,"direccion":"CALLE DE ARIEL N.4","distrito":"ARGANZUELA","barrio":"LEGAZPI","modelo":"50_LTS_EX"},{"id":"513176","lat":40.39159,"lng":-3.69223,"direccion":"CALLE DE BOLIVAR N.18","distrito":"ARGANZUELA","barrio":"LEGAZPI","modelo":"50_LTS_EX"},{"id":"516198","lat":40.39133,"lng":-3.69089,"direccion":"CALLE DE BOLIVAR N.24","distrito":"ARGANZUELA","barrio":"LEGAZPI","modelo":"50_LTS_EX"},{"id":"516180","lat":40.38487,"lng":-3.69063,"direccion":"CALLE DE EMBAJADORES N.316","distrito":"ARGANZUELA","barrio":"LEGAZPI","modelo":"50_LTS_EX"},{"id":"516177","lat":40.3849,"lng":-3.68835,"direccion":"CALLE DE EMBAJADORES N.316","distrito":"ARGANZUELA","barrio":"LEGAZPI","modelo":"50_LTS_EX"},{"id":"516289","lat":40.39231,"lng":-3.67872,"direccion":"CALLE DE EROS N.24","distrito":"ARGANZUELA","barrio":"LEGAZPI","modelo":"50_LTS_EX"},{"id":"516171","lat":40.38568,"lng":-3.69202,"direccion":"CALLE DE JOSE ANTONIO ZAPATA N.14","distrito":"ARGANZUELA","barrio":"LEGAZPI","modelo":"50_LTS_EX"},{"id":"519229","lat":40.38741,"lng":-3.69394,"direccion":"CALLE DE JULIAN RABANEDO N.19","distrito":"ARGANZUELA","barrio":"LEGAZPI","modelo":"50_LTS_EX"},{"id":"516195","lat":40.39154,"lng":-3.68686,"direccion":"CALLE DE LA ANTRACITA N.31","distrito":"ARGANZUELA","barrio":"LEGAZPI","modelo":"50_LTS_EX"},{"id":"514780","lat":40.39133,"lng":-3.68101,"direccion":"CALLE DE MENESES N.6","distrito":"ARGANZUELA","barrio":"LEGAZPI","modelo":"50_LTS_EX"},{"id":"488899","lat":40.39152,"lng":-3.67854,"direccion":"CALLE DE TITAN N.8","distrito":"ARGANZUELA","barrio":"LEGAZPI","modelo":"50_LTS_EX"},{"id":"516175","lat":40.38781,"lng":-3.69112,"direccion":"CALLE DE EMBAJADORES N.242","distrito":"ARGANZUELA","barrio":"LEGAZPI","modelo":"50_LTS_EX"},{"id":"516200","lat":40.38998,"lng":-3.68767,"direccion":"CALLE DEL BRONCE N.9","distrito":"ARGANZUELA","barrio":"LEGAZPI","modelo":"50_LTS_EX"},{"id":"518497","lat":40.38856,"lng":-3.68957,"direccion":"CALLE DEL BRONCE N.22","distrito":"ARGANZUELA","barrio":"LEGAZPI","modelo":"50_LTS_EX"},{"id":"516205","lat":40.38919,"lng":-3.68967,"direccion":"CALLE DEL HIERRO N.33","distrito":"ARGANZUELA","barrio":"LEGAZPI","modelo":"50_LTS_EX"},{"id":"513175","lat":40.39002,"lng":-3.69036,"direccion":"CALLE DE LA ANTRACITA N.10","distrito":"ARGANZUELA","barrio":"LEGAZPI","modelo":"50_LTS_EX"},{"id":"514751","lat":40.38779,"lng":-3.69554,"direccion":"CALLE DEL MAESTRO ARBOS N.29","distrito":"ARGANZUELA","barrio":"LEGAZPI","modelo":"50_LTS_EX"},{"id":"493105","lat":40.39168,"lng":-3.68951,"direccion":"CALLE DEL PLOMO N.5","distrito":"ARGANZUELA","barrio":"LEGAZPI","modelo":"50_LTS_EX"},{"id":"516188","lat":40.38676,"lng":-3.68623,"direccion":"CALLE DEL PUERTO DE BEJAR N.42","distrito":"ARGANZUELA","barrio":"LEGAZPI","modelo":"50_LTS_EX"},{"id":"514398","lat":40.38835,"lng":-3.68659,"direccion":"CALLE DEL PUERTO DE BEJAR N.7","distrito":"ARGANZUELA","barrio":"LEGAZPI","modelo":"50_LTS_EX"},{"id":"516192","lat":40.38794,"lng":-3.68764,"direccion":"CALLE DEL PUERTO DE BEJAR N.5","distrito":"ARGANZUELA","barrio":"LEGAZPI","modelo":"50_LTS_EX"},{"id":"514754","lat":40.38607,"lng":-3.68565,"direccion":"CALLE DEL PUERTO DE LA CRUZ VERDE N.49","distrito":"ARGANZUELA","barrio":"LEGAZPI","modelo":"50_LTS_EX"},{"id":"514399","lat":40.38425,"lng":-3.68579,"direccion":"CALLE DEL PUERTO DE LA CRUZ VERDE N.29","distrito":"ARGANZUELA","barrio":"LEGAZPI","modelo":"50_LTS_EX"},{"id":"516182","lat":40.38598,"lng":-3.68739,"direccion":"CALLE DEL PUERTO DE MIRAVETE N.13","distrito":"ARGANZUELA","barrio":"LEGAZPI","modelo":"50_LTS_EX"},{"id":"516185","lat":40.38543,"lng":-3.68681,"direccion":"CALLE DEL PUERTO DE LA CRUZ VERDE N.45","distrito":"ARGANZUELA","barrio":"LEGAZPI","modelo":"50_LTS_EX"},{"id":"519192","lat":40.38774,"lng":-3.69241,"direccion":"CALLE DE RICARDO GOIZUETA N.3","distrito":"ARGANZUELA","barrio":"LEGAZPI","modelo":"50_LTS_EX"},{"id":"516160","lat":40.3894,"lng":-3.69223,"direccion":"PASEO DEL MOLINO N.14","distrito":"ARGANZUELA","barrio":"LEGAZPI","modelo":"50_LTS_EX"},{"id":"516158","lat":40.39033,"lng":-3.69387,"direccion":"CALLE DE FRIGILIANA N.2","distrito":"ARGANZUELA","barrio":"LEGAZPI","modelo":"50_LTS_EX"},{"id":"514761","lat":40.3941,"lng":-3.69276,"direccion":"CALLE DE ALICANTE N.6","distrito":"ARGANZUELA","barrio":"DELICIAS","modelo":"50_LTS_EX"},{"id":"516260","lat":40.40073,"lng":-3.69277,"direccion":"CALLE DE BUSTAMANTE N.7","distrito":"ARGANZUELA","barrio":"DELICIAS","modelo":"50_LTS_EX"},{"id":"516221","lat":40.39711,"lng":-3.69659,"direccion":"CALLE DE LA BATALLA DEL SALADO N.57","distrito":"ARGANZUELA","barrio":"DELICIAS","modelo":"50_LTS_EX"},{"id":"493745","lat":40.39617,"lng":-3.69592,"direccion":"CALLE DE EMBAJADORES N.151","distrito":"ARGANZUELA","barrio":"DELICIAS","modelo":"50_LTS_EX"},{"id":"516206","lat":40.39296,"lng":-3.69295,"direccion":"CALLE DEL GRANITO N.2","distrito":"ARGANZUELA","barrio":"DELICIAS","modelo":"50_LTS_EX"},{"id":"516336","lat":40.39801,"lng":-3.68612,"direccion":"CALLE DE JUAN DE MARIANA N.14","distrito":"ARGANZUELA","barrio":"DELICIAS","modelo":"50_LTS_EX"},{"id":"526965","lat":40.39895,"lng":-3.68501,"direccion":"PLAZA DEL AMANECER EN MENDEZ ALVARO N.4","distrito":"ARGANZUELA","barrio":"DELICIAS","modelo":"50_LTS_EX"},{"id":"516214","lat":40.39618,"lng":-3.69276,"direccion":"CALLE DE JUAN DE VERA N.8","distrito":"ARGANZUELA","barrio":"DELICIAS","modelo":"50_LTS_EX"},{"id":"492483","lat":40.39876,"lng":-3.69632,"direccion":"CALLE DE CACERES N.16","distrito":"ARGANZUELA","barrio":"DELICIAS","modelo":"50_LTS_EX"},{"id":"517671","lat":40.3934,"lng":-3.69127,"direccion":"CALLE DE LA CIRCONITA N.1","distrito":"ARGANZUELA","barrio":"DELICIAS","modelo":"50_LTS_EX"},{"id":"514776","lat":40.39366,"lng":-3.68313,"direccion":"CALLE DE LA ESTRELLA DENEBOLA N.1","distrito":"ARGANZUELA","barrio":"DELICIAS","modelo":"50_LTS_EX"},{"id":"516287","lat":40.39575,"lng":-3.6861,"direccion":"CALLE DE LAS NEBULOSAS N.11","distrito":"ARGANZUELA","barrio":"DELICIAS","modelo":"50_LTS_EX"},{"id":"516273","lat":40.39836,"lng":-3.68365,"direccion":"CALLE DE MENDEZ ALVARO N.44","distrito":"ARGANZUELA","barrio":"DELICIAS","modelo":"50_LTS_EX"},{"id":"516263","lat":40.39935,"lng":-3.68965,"direccion":"CALLE DE RAMIREZ DE PRADO N.2","distrito":"ARGANZUELA","barrio":"DELICIAS","modelo":"50_LTS_EX"},{"id":"516265","lat":40.39932,"lng":-3.687,"direccion":"CALLE DE JUAN DE MARIANA N.2","distrito":"ARGANZUELA","barrio":"DELICIAS","modelo":"50_LTS_EX"},{"id":"492293","lat":40.39849,"lng":-3.69258,"direccion":"CALLE DE TOMAS BRETON N.47","distrito":"ARGANZUELA","barrio":"DELICIAS","modelo":"50_LTS_EX"},{"id":"489145","lat":40.4004,"lng":-3.68689,"direccion":"CALLE DE VILLA DEL PRADO N.2","distrito":"ARGANZUELA","barrio":"DELICIAS","modelo":"50_LTS_EX"},{"id":"514756","lat":40.39404,"lng":-3.68953,"direccion":"CALLE DEL COBRE N.4","distrito":"ARGANZUELA","barrio":"DELICIAS","modelo":"50_LTS_EX"},{"id":"492194","lat":40.40078,"lng":-3.69694,"direccion":"CALLE DEL FERROCARRIL N.27","distrito":"ARGANZUELA","barrio":"DELICIAS","modelo":"50_LTS_EX"},{"id":"492207","lat":40.4007,"lng":-3.69514,"direccion":"CALLE DEL FERROCARRIL N.9","distrito":"ARGANZUELA","barrio":"DELICIAS","modelo":"50_LTS_EX"},{"id":"516250","lat":40.39997,"lng":-3.6912,"direccion":"CALLE DE RAMIREZ DE PRADO N.1","distrito":"ARGANZUELA","barrio":"DELICIAS","modelo":"50_LTS_EX"},{"id":"516277","lat":40.39584,"lng":-3.68151,"direccion":"CALLE DEL ORIANA N.10","distrito":"ARGANZUELA","barrio":"DELICIAS","modelo":"50_LTS_EX"},{"id":"516279","lat":40.396647,"lng":-3.683942,"direccion":"CALLE DEL ORIANA N.4","distrito":"ARGANZUELA","barrio":"DELICIAS","modelo":"50_LTS_EX"},{"id":"516210","lat":40.39614,"lng":-3.68937,"direccion":"CALLE DEL PARROCO EUSEBIO CUENCA N.13","distrito":"ARGANZUELA","barrio":"DELICIAS","modelo":"50_LTS_EX"},{"id":"516209","lat":40.39475,"lng":-3.68811,"direccion":"CALLE DEL CAOLIN N.9","distrito":"ARGANZUELA","barrio":"DELICIAS","modelo":"50_LTS_EX"},{"id":"524552","lat":40.39361,"lng":-3.68773,"direccion":"CALLE DEL PARROCO EUSEBIO CUENCA N.62","distrito":"ARGANZUELA","barrio":"DELICIAS","modelo":"50_LTS_EX"},{"id":"492516","lat":40.39161,"lng":-3.69487,"direccion":"PLAZA DE LEGAZPI N.1","distrito":"ARGANZUELA","barrio":"DELICIAS","modelo":"50_LTS_EX"},{"id":"516236","lat":40.3999,"lng":-3.69395,"direccion":"PASEO DE LAS DELICIAS N.63","distrito":"ARGANZUELA","barrio":"DELICIAS","modelo":"50_LTS_EX"},{"id":"492417","lat":40.39928,"lng":-3.69426,"direccion":"PASEO DE LAS DELICIAS N.68","distrito":"ARGANZUELA","barrio":"DELICIAS","modelo":"50_LTS_EX"},{"id":"514400","lat":40.39733,"lng":-3.69425,"direccion":"PASEO DE LAS DELICIAS N.71","distrito":"ARGANZUELA","barrio":"DELICIAS","modelo":"50_LTS_EX"},{"id":"516339","lat":40.39609,"lng":-3.69438,"direccion":"PASEO DE LAS DELICIAS N.87","distrito":"ARGANZUELA","barrio":"DELICIAS","modelo":"50_LTS_EX"},{"id":"514772","lat":40.39476,"lng":-3.6948,"direccion":"PLAZA DE LA BEATA MARIA ANA DE JESUS N.15","distrito":"ARGANZUELA","barrio":"DELICIAS","modelo":"50_LTS_EX"},{"id":"518473","lat":40.39415,"lng":-3.69403,"direccion":"PLAZA DE LA BEATA MARIA ANA DE JESUS N.5","distrito":"ARGANZUELA","barrio":"DELICIAS","modelo":"50_LTS_EX"},{"id":"493604","lat":40.3937,"lng":-3.69449,"direccion":"PLAZA DE LA BEATA MARIA ANA DE JESUS N.8","distrito":"ARGANZUELA","barrio":"DELICIAS","modelo":"50_LTS_EX"},{"id":"516271","lat":40.39903,"lng":-3.68447,"direccion":"PLAZA DEL AMANECER EN MENDEZ ALVARO N.1","distrito":"ARGANZUELA","barrio":"DELICIAS","modelo":"50_LTS_EX"},{"id":"490240","lat":40.40184,"lng":-3.69986,"direccion":"CALLE DE EMBAJADORES N.83","distrito":"ARGANZUELA","barrio":"PALOS DE MOGUER","modelo":"50_LTS_EX"},{"id":"490231","lat":40.40423,"lng":-3.69826,"direccion":"CALLE DE FRAY LUIS DE LEON N.11","distrito":"ARGANZUELA","barrio":"PALOS DE MOGUER","modelo":"50_LTS_EX"},{"id":"514786","lat":40.40303,"lng":-3.69762,"direccion":"CALLE DE FRAY LUIS DE LEON N.18","distrito":"ARGANZUELA","barrio":"PALOS DE MOGUER","modelo":"50_LTS_EX"},{"id":"516241","lat":40.40614,"lng":-3.69783,"direccion":"CALLE DE JOSE ANTONIO DE ARMONA N.2","distrito":"ARGANZUELA","barrio":"PALOS DE MOGUER","modelo":"50_LTS_EX"},{"id":"514787","lat":40.40442,"lng":-3.69586,"direccion":"CALLE DE LA BATALLA DEL SALADO N.3","distrito":"ARGANZUELA","barrio":"PALOS DE MOGUER","modelo":"50_LTS_EX"},{"id":"514782","lat":40.40205,"lng":-3.69555,"direccion":"CALLE DE LAS CANARIAS N.17","distrito":"ARGANZUELA","barrio":"PALOS DE MOGUER","modelo":"50_LTS_EX"},{"id":"465825","lat":40.4016,"lng":-3.68931,"direccion":"CALLE DE LAS CANARIAS N.51","distrito":"ARGANZUELA","barrio":"PALOS DE MOGUER","modelo":"50_LTS_EX"},{"id":"489616","lat":40.40408,"lng":-3.69169,"direccion":"CALLE DE LAS DELICIAS N.31","distrito":"ARGANZUELA","barrio":"PALOS DE MOGUER","modelo":"50_LTS_EX"},{"id":"490070","lat":40.40274,"lng":-3.69749,"direccion":"CALLE DE MARTIN SOLER N.1","distrito":"ARGANZUELA","barrio":"PALOS DE MOGUER","modelo":"50_LTS_EX"},{"id":"516255","lat":40.40259,"lng":-3.68834,"direccion":"CALLE DE MENDEZ ALVARO N.24","distrito":"ARGANZUELA","barrio":"PALOS DE MOGUER","modelo":"50_LTS_EX"},{"id":"514784","lat":40.40532,"lng":-3.69366,"direccion":"PASEO DE LAS DELICIAS N.24","distrito":"ARGANZUELA","barrio":"PALOS DE MOGUER","modelo":"50_LTS_EX"},{"id":"511164","lat":40.40288,"lng":-3.69928,"direccion":"CALLE DE PALOS DE LA FRONTERA N.14","distrito":"ARGANZUELA","barrio":"PALOS DE MOGUER","modelo":"50_LTS_EX"},{"id":"489906","lat":40.403,"lng":-3.69473,"direccion":"CALLE DE PALOS DE LA FRONTERA N.27","distrito":"ARGANZUELA","barrio":"PALOS DE MOGUER","modelo":"50_LTS_EX"},{"id":"516144","lat":40.40449,"lng":-3.70017,"direccion":"CALLE DE BERNARDINO OBREGON N.12","distrito":"ARGANZUELA","barrio":"PALOS DE MOGUER","modelo":"50_LTS_EX"},{"id":"490202","lat":40.40525,"lng":-3.69561,"direccion":"CALLE DE SEBASTIAN ELCANO N.44","distrito":"ARGANZUELA","barrio":"PALOS DE MOGUER","modelo":"50_LTS_EX"},{"id":"490276","lat":40.40338,"lng":-3.70102,"direccion":"CALLE DE SEBASTIAN HERRERA N.1","distrito":"ARGANZUELA","barrio":"PALOS DE MOGUER","modelo":"50_LTS_EX"},{"id":"489958","lat":40.40102,"lng":-3.69578,"direccion":"CALLE DEL FERROCARRIL N.20","distrito":"ARGANZUELA","barrio":"PALOS DE MOGUER","modelo":"50_LTS_EX"},{"id":"516246","lat":40.40111,"lng":-3.69786,"direccion":"CALLE DEL FERROCARRIL N.38","distrito":"ARGANZUELA","barrio":"PALOS DE MOGUER","modelo":"50_LTS_EX"},{"id":"528103","lat":40.40108,"lng":-3.69859,"direccion":"CALLE DEL FERROCARRIL N.44","distrito":"ARGANZUELA","barrio":"PALOS DE MOGUER","modelo":"50_LTS_EX"},{"id":"488224","lat":40.40502,"lng":-3.69084,"direccion":"CALLE DE MURCIA N.32","distrito":"ARGANZUELA","barrio":"PALOS DE MOGUER","modelo":"50_LTS_EX"},{"id":"516253","lat":40.40301,"lng":-3.69087,"direccion":"CALLE DEL GENERAL LACY N.26","distrito":"ARGANZUELA","barrio":"PALOS DE MOGUER","modelo":"50_LTS_EX"},{"id":"489655","lat":40.40122,"lng":-3.6911,"direccion":"CALLE DEL GENERAL LACY N.48","distrito":"ARGANZUELA","barrio":"PALOS DE MOGUER","modelo":"50_LTS_EX"},{"id":"514401","lat":40.40078,"lng":-3.69082,"direccion":"CALLE DEL GENERAL LACY N.52","distrito":"ARGANZUELA","barrio":"PALOS DE MOGUER","modelo":"50_LTS_EX"},{"id":"514783","lat":40.40512,"lng":-3.69333,"direccion":"PASEO DE LAS DELICIAS N.19","distrito":"ARGANZUELA","barrio":"PALOS DE MOGUER","modelo":"50_LTS_EX"},{"id":"489918","lat":40.40224,"lng":-3.69395,"direccion":"PASEO DE LAS DELICIAS N.44","distrito":"ARGANZUELA","barrio":"PALOS DE MOGUER","modelo":"50_LTS_EX"},{"id":"516191","lat":40.40326,"lng":-3.69354,"direccion":"PASEO DE LAS DELICIAS N.45","distrito":"ARGANZUELA","barrio":"PALOS DE MOGUER","modelo":"50_LTS_EX"},{"id":"489935","lat":40.40164,"lng":-3.69402,"direccion":"PASEO DE LAS DELICIAS N.46","distrito":"ARGANZUELA","barrio":"PALOS DE MOGUER","modelo":"50_LTS_EX"},{"id":"489574","lat":40.40602,"lng":-3.69323,"direccion":"PASEO DE LAS DELICIAS N.9","distrito":"ARGANZUELA","barrio":"PALOS DE MOGUER","modelo":"50_LTS_EX"},{"id":"514774","lat":40.402,"lng":-3.693695,"direccion":"PLAZA DE LUCA DE TENA N.4","distrito":"ARGANZUELA","barrio":"PALOS DE MOGUER","modelo":"50_LTS_EX"},{"id":"518187","lat":40.407,"lng":-3.69363,"direccion":"PLAZA DEL EMPERADOR CARLOS V N.5","distrito":"ARGANZUELA","barrio":"PALOS DE MOGUER","modelo":"50_LTS_EX"},{"id":"516142","lat":40.40525,"lng":-3.70129,"direccion":"RONDA DE VALENCIA N.7","distrito":"ARGANZUELA","barrio":"PALOS DE MOGUER","modelo":"50_LTS_EX"},{"id":"518498","lat":40.39388,"lng":-3.67669,"direccion":"CALLE DE LA RETAMA N.12","distrito":"ARGANZUELA","barrio":"ATOCHA","modelo":"50_LTS_EX"},{"id":"516292","lat":40.39598,"lng":-3.67996,"direccion":"CALLE DE MENDEZ ALVARO N.77","distrito":"ARGANZUELA","barrio":"ATOCHA","modelo":"50_LTS_EX"},{"id":"514397","lat":40.39884,"lng":-3.6778,"direccion":"CALLE DEL JACARANDA N.1","distrito":"ARGANZUELA","barrio":"ATOCHA","modelo":"50_LTS_EX"},{"id":"496404","lat":40.4049,"lng":-3.68308,"direccion":"AVENIDA DE LA CIUDAD DE BARCELONA N.108","distrito":"RETIRO","barrio":"PACÍFICO","modelo":"50_LTS_EX"},{"id":"496426","lat":40.40366,"lng":-3.6797,"direccion":"AVENIDA DE LA CIUDAD DE BARCELONA N.138","distrito":"RETIRO","barrio":"PACÍFICO","modelo":"50_LTS_EX"},{"id":"516394","lat":40.40325,"lng":-3.67887,"direccion":"AVENIDA DE LA CIUDAD DE BARCELONA N.142","distrito":"RETIRO","barrio":"PACÍFICO","modelo":"50_LTS_EX"},{"id":"496333","lat":40.40277,"lng":-3.67796,"direccion":"AVENIDA DE LA CIUDAD DE BARCELONA N.150","distrito":"RETIRO","barrio":"PACÍFICO","modelo":"50_LTS_EX"},{"id":"511283","lat":40.40248,"lng":-3.67743,"direccion":"PLAZA DE DAOIZ Y VELARDE N.1","distrito":"RETIRO","barrio":"PACÍFICO","modelo":"50_LTS_EX"},{"id":"518379","lat":40.40467,"lng":-3.68163,"direccion":"AVENIDA DE LA CIUDAD DE BARCELONA N.17","distrito":"RETIRO","barrio":"PACÍFICO","modelo":"50_LTS_EX"},{"id":"516395","lat":40.40186,"lng":-3.67627,"direccion":"AVENIDA DE LA CIUDAD DE BARCELONA N.176","distrito":"RETIRO","barrio":"PACÍFICO","modelo":"50_LTS_EX"},{"id":"511287","lat":40.40129,"lng":-3.67518,"direccion":"AVENIDA DE LA CIUDAD DE BARCELONA N.184","distrito":"RETIRO","barrio":"PACÍFICO","modelo":"50_LTS_EX"},{"id":"514560","lat":40.40442,"lng":-3.68099,"direccion":"AVENIDA DE LA CIUDAD DE BARCELONA N.23","distrito":"RETIRO","barrio":"PACÍFICO","modelo":"50_LTS_EX"},{"id":"526272","lat":40.40429,"lng":-3.68067,"direccion":"AVENIDA DE LA CIUDAD DE BARCELONA N.25","distrito":"RETIRO","barrio":"PACÍFICO","modelo":"50_LTS_EX"},{"id":"511718","lat":40.40384,"lng":-3.67948,"direccion":"AVENIDA DE LA CIUDAD DE BARCELONA N.35","distrito":"RETIRO","barrio":"PACÍFICO","modelo":"50_LTS_EX"},{"id":"511341","lat":40.40237,"lng":-3.67672,"direccion":"AVENIDA DE LA CIUDAD DE BARCELONA N.57","distrito":"RETIRO","barrio":"PACÍFICO","modelo":"50_LTS_EX"},{"id":"496461","lat":40.40579,"lng":-3.6854,"direccion":"AVENIDA DE LA CIUDAD DE BARCELONA N.6","distrito":"RETIRO","barrio":"PACÍFICO","modelo":"50_LTS_EX"},{"id":"515421","lat":40.40529,"lng":-3.68006,"direccion":"AVENIDA DE MENENDEZ PELAYO N.113","distrito":"RETIRO","barrio":"PACÍFICO","modelo":"50_LTS_EX"},{"id":"497036","lat":40.40652,"lng":-3.67964,"direccion":"AVENIDA DE MENENDEZ PELAYO N.24","distrito":"RETIRO","barrio":"PACÍFICO","modelo":"50_LTS_EX"},{"id":"497029","lat":40.40548,"lng":-3.68031,"direccion":"AVENIDA DE MENENDEZ PELAYO N.36","distrito":"RETIRO","barrio":"PACÍFICO","modelo":"50_LTS_EX"},{"id":"516386","lat":40.40372,"lng":-3.67653,"direccion":"CALLE DE ABTAO N.7","distrito":"RETIRO","barrio":"PACÍFICO","modelo":"50_LTS_EX"},{"id":"496347","lat":40.40443,"lng":-3.67591,"direccion":"CALLE DE ABTAO N.18","distrito":"RETIRO","barrio":"PACÍFICO","modelo":"50_LTS_EX"},{"id":"516441","lat":40.40678,"lng":-3.68202,"direccion":"PASEO DE LA REINA CRISTINA N.16","distrito":"RETIRO","barrio":"PACÍFICO","modelo":"50_LTS_EX"},{"id":"496431","lat":40.40317,"lng":-3.6842,"direccion":"CALLE DE ANTONIO NEBRIJA N.9","distrito":"RETIRO","barrio":"PACÍFICO","modelo":"50_LTS_EX"},{"id":"497019","lat":40.40662,"lng":-3.67744,"direccion":"CALLE DE CAVANILLES N.16","distrito":"RETIRO","barrio":"PACÍFICO","modelo":"50_LTS_EX"},{"id":"496987","lat":40.40614,"lng":-3.67586,"direccion":"CALLE DE CAVANILLES N.21","distrito":"RETIRO","barrio":"PACÍFICO","modelo":"50_LTS_EX"},{"id":"516419","lat":40.40553,"lng":-3.67519,"direccion":"CALLE DE CAVANILLES N.38","distrito":"RETIRO","barrio":"PACÍFICO","modelo":"50_LTS_EX"},{"id":"518317","lat":40.40471,"lng":-3.67358,"direccion":"CALLE DE CAVANILLES N.41","distrito":"RETIRO","barrio":"PACÍFICO","modelo":"50_LTS_EX"},{"id":"497076","lat":40.40636,"lng":-3.68201,"direccion":"CALLE DE FUENTERRABIA N.11","distrito":"RETIRO","barrio":"PACÍFICO","modelo":"50_LTS_EX"},{"id":"496368","lat":40.40429,"lng":-3.67788,"direccion":"CALLE DE GRANADA N.27","distrito":"RETIRO","barrio":"PACÍFICO","modelo":"50_LTS_EX"},{"id":"497049","lat":40.4063,"lng":-3.6808,"direccion":"CALLE DE GUTENBERG N.11","distrito":"RETIRO","barrio":"PACÍFICO","modelo":"50_LTS_EX"},{"id":"496355","lat":40.40503,"lng":-3.67701,"direccion":"CALLE DE JUAN DE URBIETA N.22","distrito":"RETIRO","barrio":"PACÍFICO","modelo":"50_LTS_EX"},{"id":"516435","lat":40.40709,"lng":-3.67564,"direccion":"CALLE DE JUAN DE URBIETA N.41","distrito":"RETIRO","barrio":"PACÍFICO","modelo":"50_LTS_EX"},{"id":"516382","lat":40.40264,"lng":-3.67489,"direccion":"CALLE DE LA CARIDAD N.40","distrito":"RETIRO","barrio":"PACÍFICO","modelo":"50_LTS_EX"},{"id":"511294","lat":40.40077,"lng":-3.67638,"direccion":"CALLE DE LAS COCHERAS N.1","distrito":"RETIRO","barrio":"PACÍFICO","modelo":"50_LTS_EX"},{"id":"511293","lat":40.39995,"lng":-3.67705,"direccion":"CALLE DE LAS COCHERAS N.3","distrito":"RETIRO","barrio":"PACÍFICO","modelo":"50_LTS_EX"},{"id":"516387","lat":40.40479,"lng":-3.67895,"direccion":"CALLE DE NARCISO SERRA N.10","distrito":"RETIRO","barrio":"PACÍFICO","modelo":"50_LTS_EX"},{"id":"516428","lat":40.40622,"lng":-3.67802,"direccion":"CALLE DE NARCISO SERRA N.25","distrito":"RETIRO","barrio":"PACÍFICO","modelo":"50_LTS_EX"},{"id":"514552","lat":40.40193,"lng":-3.67836,"direccion":"CALLE DE TELLEZ N.29","distrito":"RETIRO","barrio":"PACÍFICO","modelo":"50_LTS_EX"},{"id":"496446","lat":40.40385,"lng":-3.68323,"direccion":"CALLE DE TELLEZ N.3","distrito":"RETIRO","barrio":"PACÍFICO","modelo":"50_LTS_EX"},{"id":"496303","lat":40.40106,"lng":-3.67855,"direccion":"CALLE DE TELLEZ N.31","distrito":"RETIRO","barrio":"PACÍFICO","modelo":"50_LTS_EX"},{"id":"516390","lat":40.40113,"lng":-3.67965,"direccion":"CALLE DE TELLEZ N.50","distrito":"RETIRO","barrio":"PACÍFICO","modelo":"50_LTS_EX"},{"id":"511315","lat":40.40371,"lng":-3.67393,"direccion":"CALLE DE VALDERRIBAS N.51","distrito":"RETIRO","barrio":"PACÍFICO","modelo":"50_LTS_EX"},{"id":"497064","lat":40.4054,"lng":-3.68276,"direccion":"CALLE DE VANDERGOTEN N.1","distrito":"RETIRO","barrio":"PACÍFICO","modelo":"50_LTS_EX"},{"id":"516438","lat":40.40544,"lng":-3.68145,"direccion":"CALLE DE ANDRES TORREJON N.3","distrito":"RETIRO","barrio":"PACÍFICO","modelo":"50_LTS_EX"},{"id":"514555","lat":40.40366,"lng":-3.68121,"direccion":"CALLE DEL COMERCIO N.1","distrito":"RETIRO","barrio":"PACÍFICO","modelo":"50_LTS_EX"},{"id":"496439","lat":40.40364,"lng":-3.6815,"direccion":"CALLE DEL COMERCIO N.4","distrito":"RETIRO","barrio":"PACÍFICO","modelo":"50_LTS_EX"},{"id":"496435","lat":40.40287,"lng":-3.68198,"direccion":"CALLE DEL COMERCIO N.8","distrito":"RETIRO","barrio":"PACÍFICO","modelo":"50_LTS_EX"},{"id":"518378","lat":40.40516,"lng":-3.67158,"direccion":"CALLE DEL DOCTOR ESQUERDO N.140","distrito":"RETIRO","barrio":"PACÍFICO","modelo":"50_LTS_EX"},{"id":"523339","lat":40.40317,"lng":-3.67334,"direccion":"CALLE DEL DOCTOR ESQUERDO N.160","distrito":"RETIRO","barrio":"PACÍFICO","modelo":"50_LTS_EX"},{"id":"511304","lat":40.40168,"lng":-3.67468,"direccion":"CALLE DEL DOCTOR ESQUERDO N.182","distrito":"RETIRO","barrio":"PACÍFICO","modelo":"50_LTS_EX"},{"id":"496465","lat":40.40631,"lng":-3.68646,"direccion":"PASEO DE LA INFANTA ISABEL N.25","distrito":"RETIRO","barrio":"PACÍFICO","modelo":"50_LTS_EX"},{"id":"516451","lat":40.40625,"lng":-3.6858,"direccion":"PASEO DE LA INFANTA ISABEL N.4","distrito":"RETIRO","barrio":"PACÍFICO","modelo":"50_LTS_EX"},{"id":"497039","lat":40.40717,"lng":-3.68031,"direccion":"PASEO DE LA REINA CRISTINA N.28","distrito":"RETIRO","barrio":"PACÍFICO","modelo":"50_LTS_EX"},{"id":"496493","lat":40.40656,"lng":-3.68374,"direccion":"PASEO DE LA REINA CRISTINA N.5","distrito":"RETIRO","barrio":"PACÍFICO","modelo":"50_LTS_EX"},{"id":"516432","lat":40.40732,"lng":-3.67831,"direccion":"CALLE DE CAVANILLES N.1","distrito":"RETIRO","barrio":"PACÍFICO","modelo":"50_LTS_EX"},{"id":"518313","lat":40.40637,"lng":-3.6708,"direccion":"PLAZA DEL CONDE DE CASAL N.8","distrito":"RETIRO","barrio":"PACÍFICO","modelo":"50_LTS_EX"},{"id":"496314","lat":40.40249,"lng":-3.68053,"direccion":"TRAVESIA DE TELLEZ N.1","distrito":"RETIRO","barrio":"PACÍFICO","modelo":"50_LTS_EX"},{"id":"514343","lat":40.3996,"lng":-3.6715,"direccion":"AVENIDA DE LA CIUDAD DE BARCELONA N.103","distrito":"RETIRO","barrio":"ADELFAS","modelo":"50_LTS_EX"},{"id":"519165","lat":40.39865,"lng":-3.66969,"direccion":"AVENIDA DE LA CIUDAD DE BARCELONA N.115","distrito":"RETIRO","barrio":"ADELFAS","modelo":"50_LTS_EX"},{"id":"495683","lat":40.40027,"lng":-3.67316,"direccion":"AVENIDA DE LA CIUDAD DE BARCELONA N.202","distrito":"RETIRO","barrio":"ADELFAS","modelo":"50_LTS_EX"},{"id":"514365","lat":40.40035,"lng":-3.67287,"direccion":"AVENIDA DE LA CIUDAD DE BARCELONA N.202","distrito":"RETIRO","barrio":"ADELFAS","modelo":"50_LTS_EX"},{"id":"516408","lat":40.40137,"lng":-3.66828,"direccion":"CALLE DE ARREGUI Y ARUEJ N.14","distrito":"RETIRO","barrio":"ADELFAS","modelo":"50_LTS_EX"},{"id":"514354","lat":40.40261,"lng":-3.66795,"direccion":"CALLE DE ARREGUI Y ARUEJ N.31","distrito":"RETIRO","barrio":"ADELFAS","modelo":"50_LTS_EX"},{"id":"526186","lat":40.39779,"lng":-3.67325,"direccion":"CALLE DE BARRILERO N.3","distrito":"RETIRO","barrio":"ADELFAS","modelo":"50_LTS_EX"},{"id":"516351","lat":40.40134,"lng":-3.67189,"direccion":"CALLE DE ANDALUCIA N.19","distrito":"RETIRO","barrio":"ADELFAS","modelo":"50_LTS_EX"},{"id":"515373","lat":40.40558,"lng":-3.66802,"direccion":"CALLE DE FEDERICO MORENO TORROBA N.1","distrito":"RETIRO","barrio":"ADELFAS","modelo":"50_LTS_EX"},{"id":"518347","lat":40.40587,"lng":-3.66684,"direccion":"CALLE DE FEDERICO MORENO TORROBA N.3","distrito":"RETIRO","barrio":"ADELFAS","modelo":"50_LTS_EX"},{"id":"514367","lat":40.39861,"lng":-3.67534,"direccion":"CALLE DE JATIVA N.2","distrito":"RETIRO","barrio":"ADELFAS","modelo":"50_LTS_EX"},{"id":"515375","lat":40.40385,"lng":-3.6716,"direccion":"CALLE DE LAS ADELFAS N.24","distrito":"RETIRO","barrio":"ADELFAS","modelo":"50_LTS_EX"},{"id":"516415","lat":40.40252,"lng":-3.6718,"direccion":"CALLE DE LOS PAJARITOS N.4","distrito":"RETIRO","barrio":"ADELFAS","modelo":"50_LTS_EX"},{"id":"516353","lat":40.40158,"lng":-3.67243,"direccion":"CALLE DE ANDALUCIA N.15","distrito":"RETIRO","barrio":"ADELFAS","modelo":"50_LTS_EX"},{"id":"514351","lat":40.40111,"lng":-3.67028,"direccion":"CALLE DE LUIS MITJANS N.38","distrito":"RETIRO","barrio":"ADELFAS","modelo":"50_LTS_EX"},{"id":"526364","lat":40.40344,"lng":-3.6697,"direccion":"CALLE DE LUIS MITJANS N.52","distrito":"RETIRO","barrio":"ADELFAS","modelo":"50_LTS_EX"},{"id":"496442","lat":40.39715,"lng":-3.67338,"direccion":"CALLE DE LUIS PEIDRO N.2","distrito":"RETIRO","barrio":"ADELFAS","modelo":"50_LTS_EX"},{"id":"519135","lat":40.40378,"lng":-3.66897,"direccion":"CALLE DE LUIS MITJANS N.54","distrito":"RETIRO","barrio":"ADELFAS","modelo":"50_LTS_EX"},{"id":"514361","lat":40.40518,"lng":-3.67056,"direccion":"CALLE DE SANTA SABINA N.3","distrito":"RETIRO","barrio":"ADELFAS","modelo":"50_LTS_EX"},{"id":"495671","lat":40.39931,"lng":-3.67183,"direccion":"CALLE DE SECO N.2","distrito":"RETIRO","barrio":"ADELFAS","modelo":"50_LTS_EX"},{"id":"516407","lat":40.39972,"lng":-3.66883,"direccion":"CALLE DE TRIQUET N.8","distrito":"RETIRO","barrio":"ADELFAS","modelo":"50_LTS_EX"},{"id":"516398","lat":40.39884,"lng":-3.67366,"direccion":"CALLE DEL CAFETO N.5","distrito":"RETIRO","barrio":"ADELFAS","modelo":"50_LTS_EX"},{"id":"516401","lat":40.39764,"lng":-3.67067,"direccion":"CALLE DEL CERRO NEGRO N.3","distrito":"RETIRO","barrio":"ADELFAS","modelo":"50_LTS_EX"},{"id":"516400","lat":40.39636,"lng":-3.67191,"direccion":"CALLE DEL CERRO NEGRO N.12","distrito":"RETIRO","barrio":"ADELFAS","modelo":"50_LTS_EX"},{"id":"513383","lat":40.40459,"lng":-3.67156,"direccion":"CALLE DEL DOCTOR ESQUERDO N.185","distrito":"RETIRO","barrio":"ADELFAS","modelo":"50_LTS_EX"},{"id":"513376","lat":40.40302,"lng":-3.67298,"direccion":"CALLE DEL DOCTOR ESQUERDO N.197","distrito":"RETIRO","barrio":"ADELFAS","modelo":"50_LTS_EX"},{"id":"516184","lat":40.40688,"lng":-3.66731,"direccion":"AVENIDA DEL MEDITERRANEO N.59","distrito":"RETIRO","barrio":"ESTRELLA","modelo":"50_LTS_EX"},{"id":"497432","lat":40.41589,"lng":-3.66738,"direccion":"CALLE DE JOSE MARTINEZ DE VELASCO N.12","distrito":"RETIRO","barrio":"ESTRELLA","modelo":"50_LTS_EX"},{"id":"516202","lat":40.41497,"lng":-3.66745,"direccion":"CALLE DE JOSE MARTINEZ DE VELASCO N.20","distrito":"RETIRO","barrio":"ESTRELLA","modelo":"50_LTS_EX"},{"id":"518351","lat":40.41491,"lng":-3.66596,"direccion":"CALLE DE JUAN ESPLANDIU N.1","distrito":"RETIRO","barrio":"ESTRELLA","modelo":"50_LTS_EX"},{"id":"514417","lat":40.4181,"lng":-3.66154,"direccion":"CALLE DE JUAN ESPLANDIU N.12","distrito":"RETIRO","barrio":"ESTRELLA","modelo":"50_LTS_EX"},{"id":"498608","lat":40.41852,"lng":-3.66223,"direccion":"CALLE DEL MARQUES DE LOZOYA N.34","distrito":"RETIRO","barrio":"ESTRELLA","modelo":"50_LTS_EX"},{"id":"498643","lat":40.41682,"lng":-3.66333,"direccion":"CALLE DE JUAN ESPLANDIU N.22","distrito":"RETIRO","barrio":"ESTRELLA","modelo":"50_LTS_EX"},{"id":"514419","lat":40.41597,"lng":-3.66262,"direccion":"CALLE DE JUAN ESPLANDIU N.4","distrito":"RETIRO","barrio":"ESTRELLA","modelo":"50_LTS_EX"},{"id":"516373","lat":40.41677,"lng":-3.6625,"direccion":"CALLE DE JUAN ESPLANDIU N.6","distrito":"RETIRO","barrio":"ESTRELLA","modelo":"50_LTS_EX"},{"id":"514561","lat":40.40979,"lng":-3.66837,"direccion":"CALLE DE LA CRUZ DEL SUR N.15","distrito":"RETIRO","barrio":"ESTRELLA","modelo":"50_LTS_EX"},{"id":"516639","lat":40.41021,"lng":-3.66879,"direccion":"CALLE DE LA CRUZ DEL SUR N.26","distrito":"RETIRO","barrio":"ESTRELLA","modelo":"50_LTS_EX"},{"id":"497235","lat":40.41172,"lng":-3.66819,"direccion":"CALLE DE LA CRUZ DEL SUR N.5","distrito":"RETIRO","barrio":"ESTRELLA","modelo":"50_LTS_EX"},{"id":"516187","lat":40.41112,"lng":-3.66416,"direccion":"CALLE DE LA ESTRELLA POLAR N.19","distrito":"RETIRO","barrio":"ESTRELLA","modelo":"50_LTS_EX"},{"id":"516186","lat":40.41053,"lng":-3.66639,"direccion":"CALLE DE LA ESTRELLA POLAR N.8","distrito":"RETIRO","barrio":"ESTRELLA","modelo":"50_LTS_EX"},{"id":"497286","lat":40.41107,"lng":-3.66624,"direccion":"CALLE DE LA ESTRELLA POLAR N.22","distrito":"RETIRO","barrio":"ESTRELLA","modelo":"50_LTS_EX"},{"id":"496695","lat":40.40825,"lng":-3.66753,"direccion":"CALLE DE LA LIRA N.10","distrito":"RETIRO","barrio":"ESTRELLA","modelo":"50_LTS_EX"},{"id":"496725","lat":40.40853,"lng":-3.66987,"direccion":"CALLE DE LA LIRA N.2","distrito":"RETIRO","barrio":"ESTRELLA","modelo":"50_LTS_EX"},{"id":"511708","lat":40.41863,"lng":-3.66737,"direccion":"CALLE DE LAS VAQUERIAS N.7","distrito":"RETIRO","barrio":"ESTRELLA","modelo":"50_LTS_EX"},{"id":"497269","lat":40.41163,"lng":-3.66959,"direccion":"CALLE DE LOS ASTROS N.1","distrito":"RETIRO","barrio":"ESTRELLA","modelo":"50_LTS_EX"},{"id":"516152","lat":40.41109,"lng":-3.66785,"direccion":"CALLE DE LOS ASTROS N.11","distrito":"RETIRO","barrio":"ESTRELLA","modelo":"50_LTS_EX"},{"id":"498344","lat":40.42032,"lng":-3.66709,"direccion":"CALLE DE MATEO LOPEZ N.11","distrito":"RETIRO","barrio":"ESTRELLA","modelo":"50_LTS_EX"},{"id":"518373","lat":40.41972,"lng":-3.66642,"direccion":"CALLE DE SALIENTE N.6","distrito":"RETIRO","barrio":"ESTRELLA","modelo":"50_LTS_EX"},{"id":"522983","lat":40.41263,"lng":-3.66297,"direccion":"CALLE DE SIRIO N.14","distrito":"RETIRO","barrio":"ESTRELLA","modelo":"50_LTS_EX"},{"id":"516190","lat":40.41226,"lng":-3.66322,"direccion":"CALLE DE SIRIO N.22","distrito":"RETIRO","barrio":"ESTRELLA","modelo":"50_LTS_EX"},{"id":"518338","lat":40.41054,"lng":-3.66415,"direccion":"CALLE DE SIRIO N.42","distrito":"RETIRO","barrio":"ESTRELLA","modelo":"50_LTS_EX"},{"id":"521567","lat":40.40867,"lng":-3.66562,"direccion":"CALLE DE SIRIO N.66","distrito":"RETIRO","barrio":"ESTRELLA","modelo":"50_LTS_EX"},{"id":"498452","lat":40.41861,"lng":-3.66552,"direccion":"CALLE DEL ALCALDE SAINZ DE BARANDA N.107","distrito":"RETIRO","barrio":"ESTRELLA","modelo":"50_LTS_EX"},{"id":"515382","lat":40.41673,"lng":-3.66907,"direccion":"CALLE DEL ALCALDE SAINZ DE BARANDA N.67","distrito":"RETIRO","barrio":"ESTRELLA","modelo":"50_LTS_EX"},{"id":"514569","lat":40.41676,"lng":-3.66842,"direccion":"CALLE DEL ALCALDE SAINZ DE BARANDA N.68","distrito":"RETIRO","barrio":"ESTRELLA","modelo":"50_LTS_EX"},{"id":"514593","lat":40.41907,"lng":-3.66532,"direccion":"CALLE DEL ALCALDE SAINZ DE BARANDA N.90","distrito":"RETIRO","barrio":"ESTRELLA","modelo":"50_LTS_EX"},{"id":"498435","lat":40.41763,"lng":-3.66712,"direccion":"CALLE DEL ALCALDE SAINZ DE BARANDA N.97","distrito":"RETIRO","barrio":"ESTRELLA","modelo":"50_LTS_EX"},{"id":"511705","lat":40.41455,"lng":-3.66932,"direccion":"CALLE DEL DOCTOR ESQUERDO N.107","distrito":"RETIRO","barrio":"ESTRELLA","modelo":"50_LTS_EX"},{"id":"497401","lat":40.41354,"lng":-3.66943,"direccion":"CALLE DEL DOCTOR ESQUERDO N.117","distrito":"RETIRO","barrio":"ESTRELLA","modelo":"50_LTS_EX"},{"id":"496718","lat":40.40754,"lng":-3.66995,"direccion":"CALLE DEL DOCTOR ESQUERDO N.169","distrito":"RETIRO","barrio":"ESTRELLA","modelo":"50_LTS_EX"},{"id":"498404","lat":40.42038,"lng":-3.66887,"direccion":"CALLE DEL DOCTOR ESQUERDO N.57","distrito":"RETIRO","barrio":"ESTRELLA","modelo":"50_LTS_EX"},{"id":"498415","lat":40.4188,"lng":-3.66898,"direccion":"CALLE DEL DOCTOR ESQUERDO N.79","distrito":"RETIRO","barrio":"ESTRELLA","modelo":"50_LTS_EX"},{"id":"516369","lat":40.41753,"lng":-3.66346,"direccion":"CALLE DEL MARQUES DE LOZOYA N.16","distrito":"RETIRO","barrio":"ESTRELLA","modelo":"50_LTS_EX"},{"id":"498557","lat":40.41901,"lng":-3.663,"direccion":"CALLE DEL MARQUES DE LOZOYA N.23","distrito":"RETIRO","barrio":"ESTRELLA","modelo":"50_LTS_EX"},{"id":"516203","lat":40.41904,"lng":-3.66401,"direccion":"CALLE DEL MARQUES DE LOZOYA N.29","distrito":"RETIRO","barrio":"ESTRELLA","modelo":"50_LTS_EX"},{"id":"514570","lat":40.41665,"lng":-3.66542,"direccion":"CALLE DEL MARQUES DE LOZOYA N.3","distrito":"RETIRO","barrio":"ESTRELLA","modelo":"50_LTS_EX"},{"id":"498548","lat":40.41697,"lng":-3.66397,"direccion":"CALLE DEL MARQUES DE LOZOYA N.14","distrito":"RETIRO","barrio":"ESTRELLA","modelo":"50_LTS_EX"},{"id":"516154","lat":40.41352,"lng":-3.66596,"direccion":"CALLE DEL PEZ AUSTRAL N.3","distrito":"RETIRO","barrio":"ESTRELLA","modelo":"50_LTS_EX"},{"id":"497369","lat":40.41373,"lng":-3.66621,"direccion":"CALLE DEL PEZ AUSTRAL N.4","distrito":"RETIRO","barrio":"ESTRELLA","modelo":"50_LTS_EX"},{"id":"516157","lat":40.41364,"lng":-3.66742,"direccion":"CALLE DEL PEZ VOLADOR N.15","distrito":"RETIRO","barrio":"ESTRELLA","modelo":"50_LTS_EX"},{"id":"519275","lat":40.41427,"lng":-3.66559,"direccion":"CALLE DEL PEZ VOLADOR N.21","distrito":"RETIRO","barrio":"ESTRELLA","modelo":"50_LTS_EX"},{"id":"514415","lat":40.41422,"lng":-3.66423,"direccion":"CALLE DEL PEZ VOLADOR N.32","distrito":"RETIRO","barrio":"ESTRELLA","modelo":"50_LTS_EX"},{"id":"497349","lat":40.41398,"lng":-3.66321,"direccion":"CALLE DEL PEZ VOLADOR N.38","distrito":"RETIRO","barrio":"ESTRELLA","modelo":"50_LTS_EX"},{"id":"514564","lat":40.41157,"lng":-3.66601,"direccion":"PASAJE DE CAN MAYOR N.2","distrito":"RETIRO","barrio":"ESTRELLA","modelo":"50_LTS_EX"},{"id":"518334","lat":40.40965,"lng":-3.6677,"direccion":"PASAJE DEL ESCUDO N.2","distrito":"RETIRO","barrio":"ESTRELLA","modelo":"50_LTS_EX"},{"id":"516181","lat":40.40868,"lng":-3.66781,"direccion":"PASAJE DEL LINCE N.8","distrito":"RETIRO","barrio":"ESTRELLA","modelo":"50_LTS_EX"},{"id":"514563","lat":40.40825,"lng":-3.66587,"direccion":"CALLE DE SIRIO N.70","distrito":"RETIRO","barrio":"ESTRELLA","modelo":"50_LTS_EX"},{"id":"499106","lat":40.41966,"lng":-3.67911,"direccion":"AVENIDA DE MENENDEZ PELAYO N.19","distrito":"RETIRO","barrio":"IBIZA","modelo":"50_LTS_EX"},{"id":"498265","lat":40.41883,"lng":-3.67881,"direccion":"AVENIDA DE MENENDEZ PELAYO N.27","distrito":"RETIRO","barrio":"IBIZA","modelo":"50_LTS_EX"},{"id":"518385","lat":40.4176,"lng":-3.67839,"direccion":"AVENIDA DE MENENDEZ PELAYO N.41","distrito":"RETIRO","barrio":"IBIZA","modelo":"50_LTS_EX"},{"id":"515384","lat":40.4181,"lng":-3.6757,"direccion":"CALLE DE IBIZA N.24","distrito":"RETIRO","barrio":"IBIZA","modelo":"50_LTS_EX"},{"id":"516163","lat":40.41832,"lng":-3.67469,"direccion":"CALLE DE IBIZA N.31","distrito":"RETIRO","barrio":"IBIZA","modelo":"50_LTS_EX"},{"id":"516162","lat":40.41824,"lng":-3.67328,"direccion":"CALLE DE IBIZA N.41","distrito":"RETIRO","barrio":"IBIZA","modelo":"50_LTS_EX"},{"id":"516159","lat":40.41815,"lng":-3.67146,"direccion":"CALLE DE ANTONIO ARIAS N.1","distrito":"RETIRO","barrio":"IBIZA","modelo":"50_LTS_EX"},{"id":"516097","lat":40.41819,"lng":-3.6776,"direccion":"CALLE DE IBIZA N.6","distrito":"RETIRO","barrio":"IBIZA","modelo":"50_LTS_EX"},{"id":"497995","lat":40.41716,"lng":-3.67782,"direccion":"CALLE DE LOPE DE RUEDA N.59","distrito":"RETIRO","barrio":"IBIZA","modelo":"50_LTS_EX"},{"id":"516170","lat":40.41928,"lng":-3.67439,"direccion":"CALLE DE MENORCA N.36","distrito":"RETIRO","barrio":"IBIZA","modelo":"50_LTS_EX"},{"id":"498868","lat":40.41924,"lng":-3.67312,"direccion":"CALLE DE MAIQUEZ N.34","distrito":"RETIRO","barrio":"IBIZA","modelo":"50_LTS_EX"},{"id":"498981","lat":40.4213,"lng":-3.67586,"direccion":"CALLE DE NARVAEZ N.29","distrito":"RETIRO","barrio":"IBIZA","modelo":"50_LTS_EX"},{"id":"499010","lat":40.4206,"lng":-3.67622,"direccion":"CALLE DE NARVAEZ N.38","distrito":"RETIRO","barrio":"IBIZA","modelo":"50_LTS_EX"},{"id":"498999","lat":40.41954,"lng":-3.67601,"direccion":"CALLE DE NARVAEZ N.43","distrito":"RETIRO","barrio":"IBIZA","modelo":"50_LTS_EX"},{"id":"518540","lat":40.41931,"lng":-3.67635,"direccion":"CALLE DE NARVAEZ N.52","distrito":"RETIRO","barrio":"IBIZA","modelo":"50_LTS_EX"},{"id":"498280","lat":40.41847,"lng":-3.67607,"direccion":"CALLE DE NARVAEZ N.53","distrito":"RETIRO","barrio":"IBIZA","modelo":"50_LTS_EX"},{"id":"519295","lat":40.41806,"lng":-3.67639,"direccion":"CALLE DE NARVAEZ N.66","distrito":"RETIRO","barrio":"IBIZA","modelo":"50_LTS_EX"},{"id":"497962","lat":40.41583,"lng":-3.67631,"direccion":"CALLE DE NARVAEZ N.71","distrito":"RETIRO","barrio":"IBIZA","modelo":"50_LTS_EX"},{"id":"516165","lat":40.42133,"lng":-3.67429,"direccion":"CALLE DE O'DONNELL N.36","distrito":"RETIRO","barrio":"IBIZA","modelo":"50_LTS_EX"},{"id":"512512","lat":40.41705,"lng":-3.6761,"direccion":"CALLE DEL ALCALDE SAINZ DE BARANDA N.13","distrito":"RETIRO","barrio":"IBIZA","modelo":"50_LTS_EX"},{"id":"516099","lat":40.41682,"lng":-3.67659,"direccion":"CALLE DEL ALCALDE SAINZ DE BARANDA N.16","distrito":"RETIRO","barrio":"IBIZA","modelo":"50_LTS_EX"},{"id":"516173","lat":40.41673,"lng":-3.67497,"direccion":"CALLE DEL ALCALDE SAINZ DE BARANDA N.28","distrito":"RETIRO","barrio":"IBIZA","modelo":"50_LTS_EX"},{"id":"516174","lat":40.41659,"lng":-3.67237,"direccion":"CALLE DEL ALCALDE SAINZ DE BARANDA N.46","distrito":"RETIRO","barrio":"IBIZA","modelo":"50_LTS_EX"},{"id":"515386","lat":40.4168,"lng":-3.67171,"direccion":"CALLE DEL ALCALDE SAINZ DE BARANDA N.49","distrito":"RETIRO","barrio":"IBIZA","modelo":"50_LTS_EX"},{"id":"498169","lat":40.41668,"lng":-3.66972,"direccion":"CALLE DEL ALCALDE SAINZ DE BARANDA N.65","distrito":"RETIRO","barrio":"IBIZA","modelo":"50_LTS_EX"},{"id":"497808","lat":40.41578,"lng":-3.67746,"direccion":"AVENIDA DE MENENDEZ PELAYO N.61","distrito":"RETIRO","barrio":"IBIZA","modelo":"50_LTS_EX"},{"id":"516090","lat":40.42037,"lng":-3.67747,"direccion":"CALLE DEL DOCTOR CASTELO N.16","distrito":"RETIRO","barrio":"IBIZA","modelo":"50_LTS_EX"},{"id":"516661","lat":40.41836,"lng":-3.67896,"direccion":"AVENIDA DE MENENDEZ PELAYO N.10","distrito":"RETIRO","barrio":"JERÓNIMOS","modelo":"50_LTS_EX"},{"id":"513953","lat":40.42037,"lng":-3.67967,"direccion":"AVENIDA DE MENENDEZ PELAYO N.13","distrito":"RETIRO","barrio":"JERÓNIMOS","modelo":"50_LTS_EX"},{"id":"514413","lat":40.41136,"lng":-3.67648,"direccion":"AVENIDA DE MENENDEZ PELAYO N.12","distrito":"RETIRO","barrio":"JERÓNIMOS","modelo":"50_LTS_EX"},{"id":"514664","lat":40.41965,"lng":-3.67944,"direccion":"AVENIDA DE MENENDEZ PELAYO N.19","distrito":"RETIRO","barrio":"JERÓNIMOS","modelo":"50_LTS_EX"},{"id":"514600","lat":40.41736,"lng":-3.67862,"direccion":"AVENIDA DE MENENDEZ PELAYO N.43","distrito":"RETIRO","barrio":"JERÓNIMOS","modelo":"50_LTS_EX"},{"id":"514412","lat":40.41547,"lng":-3.67797,"direccion":"AVENIDA DE MENENDEZ PELAYO N.61","distrito":"RETIRO","barrio":"JERÓNIMOS","modelo":"50_LTS_EX"},{"id":"514599","lat":40.41497,"lng":-3.67778,"direccion":"AVENIDA DE MENENDEZ PELAYO N.63","distrito":"RETIRO","barrio":"JERÓNIMOS","modelo":"50_LTS_EX"},{"id":"514605","lat":40.40953,"lng":-3.67764,"direccion":"AVENIDA DE MENENDEZ PELAYO N.79","distrito":"RETIRO","barrio":"JERÓNIMOS","modelo":"50_LTS_EX"},{"id":"516085","lat":40.421272,"lng":-3.679982,"direccion":"AVENIDA DE MENENDEZ PELAYO N.9","distrito":"RETIRO","barrio":"JERÓNIMOS","modelo":"50_LTS_EX"},{"id":"513950","lat":40.42064,"lng":-3.68468,"direccion":"CALLE DE ALCALA N.60","distrito":"RETIRO","barrio":"JERÓNIMOS","modelo":"50_LTS_EX"},{"id":"514638","lat":40.42034,"lng":-3.6861,"direccion":"CALLE DE ALCALA N.83","distrito":"RETIRO","barrio":"JERÓNIMOS","modelo":"50_LTS_EX"},{"id":"514629","lat":40.41525,"lng":-3.68886,"direccion":"CALLE DE ALFONSO XII N.1","distrito":"RETIRO","barrio":"JERÓNIMOS","modelo":"50_LTS_EX"},{"id":"513948","lat":40.41781,"lng":-3.68873,"direccion":"CALLE DE ALFONSO XII N.14","distrito":"RETIRO","barrio":"JERÓNIMOS","modelo":"50_LTS_EX"},{"id":"516453","lat":40.40774,"lng":-3.68851,"direccion":"CALLE DE ALFONSO XII N.17","distrito":"RETIRO","barrio":"JERÓNIMOS","modelo":"50_LTS_EX"},{"id":"514631","lat":40.41685,"lng":-3.68881,"direccion":"CALLE DE ALFONSO XII N.20","distrito":"RETIRO","barrio":"JERÓNIMOS","modelo":"50_LTS_EX"},{"id":"516669","lat":40.41275,"lng":-3.68869,"direccion":"CALLE DE ALFONSO XII N.46","distrito":"RETIRO","barrio":"JERÓNIMOS","modelo":"50_LTS_EX"},{"id":"516666","lat":40.40978,"lng":-3.6885,"direccion":"CALLE DE ALFONSO XII N.3","distrito":"RETIRO","barrio":"JERÓNIMOS","modelo":"50_LTS_EX"},{"id":"499470","lat":40.4118,"lng":-3.68905,"direccion":"CALLE DE ALFONSO XII N.52","distrito":"RETIRO","barrio":"JERÓNIMOS","modelo":"50_LTS_EX"},{"id":"496482","lat":40.40885,"lng":-3.68887,"direccion":"CALLE DE ALFONSO XII N.60","distrito":"RETIRO","barrio":"JERÓNIMOS","modelo":"50_LTS_EX"},